ASN: 7342
BGP Community Convention: ''
BGP Extended Community Convention: ''
BGP Large Community Convention: ''
Contact Email: rootdns@verisign.com
Homepage: https://a.root-servers.org/
IPv4: 198.41.0.4
IPv6: 2001:503:ba3e::2:30
Identifier Naming Convention: ''
Operator: Verisign, Inc.
Peering Policy: https://www.peeringdb.com/net/873
RSSAC: https://a.root-servers.org/metrics/index.html
RSSAC001: ''
Sites:
- BGP Intermediate AS: null
  BGP Origin AS: null
  BGP Site Identifier: ''
  Country: NL
  IPv4: true
  IPv6: true
  Identifiers: []
  Instances: 1
  Latitude: 52.3702157
  Longitude: 4.8951679
  Status: operational
  Town: Amsterdam
  Type: Local
- BGP Intermediate AS: null
  BGP Origin AS: null
  BGP Site Identifier: ''
  Country: NL
  IPv4: true
  IPv6: true
  Identifiers: []
  Instances: 1
  Latitude: 52.3702157
  Longitude: 4.8951679
  Status: operational
  Town: Amsterdam
  Type: Global
- BGP Intermediate AS: null
  BGP Origin AS: null
  BGP Site Identifier: ''
  Country: NL
  IPv4: true
  IPv6: true
  Identifiers: []
  Instances: 1
  Latitude: 52.3702157
  Longitude: 4.8951679
  Status: operational
  Town: Amsterdam
  Type: Global
- BGP Intermediate AS: null
  BGP Origin AS: null
  BGP Site Identifier: ''
  Country: NL
  IPv4: true
  IPv6: true
  Identifiers: []
  Instances: 1
  Latitude: 52.3702157
  Longitude: 4.8951679
  Status: operational
  Town: Amsterdam
  Type: Global
- BGP Intermediate AS: null
  BGP Origin AS: null
  BGP Site Identifier: ''
  Country: NL
  IPv4: true
  IPv6: true
  Identifiers: []
  Instances: 1
  Latitude: 52.3702157
  Longitude: 4.8951679
  Status: operational
  Town: Amsterdam
  Type: Local
- BGP Intermediate AS: null
  BGP Origin AS: null
  BGP Site Identifier: ''
  Country: US
  IPv4: true
  IPv6: true
  Identifiers: []
  Instances: 1
  Latitude: 39.0437567
  Longitude: -77.4874416
  Status: operational
  Town: Ashburn
  Type: Local
- BGP Intermediate AS: null
  BGP Origin AS: null
  BGP Site Identifier: ''
  Country: US
  IPv4: true
  IPv6: true
  Identifiers: []
  Instances: 1
  Latitude: 39.0437567
  Longitude: -77.4874416
  Status: operational
  Town: Ashburn
  Type: Global
- BGP Intermediate AS: null
  BGP Origin AS: null
  BGP Site Identifier: ''
  Country: US
  IPv4: true
  IPv6: true
  Identifiers: []
  Instances: 1
  Latitude: 39.0437567
  Longitude: -77.4874416
  Status: operational
  Town: Ashburn
  Type: Local
- BGP Intermediate AS: null
  BGP Origin AS: null
  BGP Site Identifier: ''
  Country: US
  IPv4: true
  IPv6: true
  Identifiers: []
  Instances: 1
  Latitude: 41.8781136
  Longitude: -87.6297982
  Status: operational
  Town: Chicago
  Type: Global
- BGP Intermediate AS: null
  BGP Origin AS: null
  BGP Site Identifier: ''
  Country: US
  IPv4: true
  IPv6: true
  Identifiers: []
  Instances: 1
  Latitude: 41.8781136
  Longitude: -87.6297982
  Status: operational
  Town: Chicago
  Type: Local
- BGP Intermediate AS: null
  BGP Origin AS: null
  BGP Site Identifier: ''
  Country: DE
  IPv4: true
  IPv6: true
  Identifiers: []
  Instances: 1
  Latitude: 50.1109221
  Longitude: 8.6821267
  Status: operational
  Town: Frankfurt
  Type: Local
- BGP Intermediate AS: null
  BGP Origin AS: null
  BGP Site Identifier: ''
  Country: DE
  IPv4: true
  IPv6: true
  Identifiers: []
  Instances: 1
  Latitude: 50.1109221
  Longitude: 8.6821267
  Status: operational
  Town: Frankfurt
  Type: Global
- BGP Intermediate AS: null
  BGP Origin AS: null
  BGP Site Identifier: ''
  Country: DE
  IPv4: true
  IPv6: true
  Identifiers: []
  Instances: 1
  Latitude: 50.1109221
  Longitude: 8.6821267
  Status: operational
  Town: Frankfurt
  Type: Local
- BGP Intermediate AS: null
  BGP Origin AS: null
  BGP Site Identifier: ''
  Country: DE
  IPv4: true
  IPv6: true
  Identifiers: []
  Instances: 1
  Latitude: 50.1109221
  Longitude: 8.6821267
  Status: operational
  Town: Frankfurt
  Type: Global
- BGP Intermediate AS: null
  BGP Origin AS: null
  BGP Site Identifier: ''
  Country: DE
  IPv4: true
  IPv6: true
  Identifiers: []
  Instances: 1
  Latitude: 50.1109221
  Longitude: 8.6821267
  Status: operational
  Town: Frankfurt
  Type: Global
- BGP Intermediate AS: null
  BGP Origin AS: null
  BGP Site Identifier: ''
  Country: CN
  IPv4: true
  IPv6: true
  Identifiers: []
  Instances: 1
  Latitude: 23.1301964
  Longitude: 113.2592945
  Status: operational
  Town: Guangzhou
  Type: Global
- BGP Intermediate AS: null
  BGP Origin AS: null
  BGP Site Identifier: ''
  Country: GB
  IPv4: true
  IPv6: true
  Identifiers: []
  Instances: 1
  Latitude: 51.5073509
  Longitude: -0.1277583
  Status: operational
  Town: London
  Type: Global
- BGP Intermediate AS: null
  BGP Origin AS: null
  BGP Site Identifier: ''
  Country: GB
  IPv4: true
  IPv6: true
  Identifiers: []
  Instances: 1
  Latitude: 51.5073509
  Longitude: -0.1277583
  Status: operational
  Town: London
  Type: Local
- BGP Intermediate AS: null
  BGP Origin AS: null
  BGP Site Identifier: ''
  Country: GB
  IPv4: true
  IPv6: true
  Identifiers: []
  Instances: 1
  Latitude: 51.5073509
  Longitude: -0.1277583
  Status: operational
  Town: London
  Type: Local
- BGP Intermediate AS: null
  BGP Origin AS: null
  BGP Site Identifier: ''
  Country: GB
  IPv4: true
  IPv6: true
  Identifiers: []
  Instances: 1
  Latitude: 51.5073509
  Longitude: -0.1277583
  Status: operational
  Town: London
  Type: Global
- BGP Intermediate AS: null
  BGP Origin AS: null
  BGP Site Identifier: ''
  Country: US
  IPv4: true
  IPv6: true
  Identifiers: []
  Instances: 1
  Latitude: 34.0522342
  Longitude: -118.2436849
  Status: operational
  Town: Los Angeles
  Type: Global
- BGP Intermediate AS: null
  BGP Origin AS: null
  BGP Site Identifier: ''
  Country: US
  IPv4: true
  IPv6: true
  Identifiers: []
  Instances: 1
  Latitude: 34.0522342
  Longitude: -118.2436849
  Status: operational
  Town: Los Angeles
  Type: Local
- BGP Intermediate AS: null
  BGP Origin AS: null
  BGP Site Identifier: ''
  Country: US
  IPv4: true
  IPv6: true
  Identifiers: []
  Instances: 1
  Latitude: 34.0522342
  Longitude: -118.2436849
  Status: operational
  Town: Los Angeles
  Type: Local
- BGP Intermediate AS: null
  BGP Origin AS: null
  BGP Site Identifier: ''
  Country: US
  IPv4: true
  IPv6: true
  Identifiers: []
  Instances: 1
  Latitude: 34.0522342
  Longitude: -118.2436849
  Status: operational
  Town: Los Angeles
  Type: Global
- BGP Intermediate AS: null
  BGP Origin AS: null
  BGP Site Identifier: ''
  Country: US
  IPv4: true
  IPv6: true
  Identifiers: []
  Instances: 1
  Latitude: 34.0522342
  Longitude: -118.2436849
  Status: operational
  Town: Los Angeles
  Type: Global
- BGP Intermediate AS: null
  BGP Origin AS: null
  BGP Site Identifier: ''
  Country: FR
  IPv4: true
  IPv6: true
  Identifiers: []
  Instances: 1
  Latitude: 43.2961743
  Longitude: 5.3699525
  Status: operational
  Town: Marseille
  Type: Global
- BGP Intermediate AS: null
  BGP Origin AS: null
  BGP Site Identifier: ''
  Country: FR
  IPv4: true
  IPv6: true
  Identifiers: []
  Instances: 1
  Latitude: 43.2961743
  Longitude: 5.3699525
  Status: operational
  Town: Marseille
  Type: Global
- BGP Intermediate AS: null
  BGP Origin AS: null
  BGP Site Identifier: ''
  Country: US
  IPv4: true
  IPv6: true
  Identifiers: []
  Instances: 1
  Latitude: 25.7616798
  Longitude: -80.1917902
  Status: operational
  Town: Miami
  Type: Local
- BGP Intermediate AS: null
  BGP Origin AS: null
  BGP Site Identifier: ''
  Country: US
  IPv4: true
  IPv6: true
  Identifiers: []
  Instances: 1
  Latitude: 25.7616798
  Longitude: -80.1917902
  Status: operational
  Town: Miami
  Type: Global
- BGP Intermediate AS: null
  BGP Origin AS: null
  BGP Site Identifier: ''
  Country: US
  IPv4: true
  IPv6: true
  Identifiers: []
  Instances: 1
  Latitude: 25.7616798
  Longitude: -80.1917902
  Status: operational
  Town: Miami
  Type: Global
- BGP Intermediate AS: null
  BGP Origin AS: null
  BGP Site Identifier: ''
  Country: US
  IPv4: true
  IPv6: true
  Identifiers: []
  Instances: 1
  Latitude: 40.7127837
  Longitude: -74.0059413
  Status: operational
  Town: New York
  Type: Local
- BGP Intermediate AS: null
  BGP Origin AS: null
  BGP Site Identifier: ''
  Country: US
  IPv4: true
  IPv6: true
  Identifiers: []
  Instances: 1
  Latitude: 40.7127837
  Longitude: -74.0059413
  Status: operational
  Town: New York
  Type: Local
- BGP Intermediate AS: null
  BGP Origin AS: null
  BGP Site Identifier: ''
  Country: US
  IPv4: true
  IPv6: true
  Identifiers: []
  Instances: 1
  Latitude: 40.7127837
  Longitude: -74.0059413
  Status: operational
  Town: New York
  Type: Global
- BGP Intermediate AS: null
  BGP Origin AS: null
  BGP Site Identifier: ''
  Country: FR
  IPv4: true
  IPv6: true
  Identifiers: []
  Instances: 1
  Latitude: 48.856614
  Longitude: 2.3522219
  Status: operational
  Town: Paris
  Type: Global
- BGP Intermediate AS: null
  BGP Origin AS: null
  BGP Site Identifier: ''
  Country: FR
  IPv4: true
  IPv6: true
  Identifiers: []
  Instances: 1
  Latitude: 48.856614
  Longitude: 2.3522219
  Status: operational
  Town: Paris
  Type: Global
- BGP Intermediate AS: null
  BGP Origin AS: null
  BGP Site Identifier: ''
  Country: US
  IPv4: true
  IPv6: true
  Identifiers: []
  Instances: 1
  Latitude: 33.0198431
  Longitude: -96.6988856
  Status: operational
  Town: Plano
  Type: Local
- BGP Intermediate AS: null
  BGP Origin AS: null
  BGP Site Identifier: ''
  Country: US
  IPv4: true
  IPv6: true
  Identifiers: []
  Instances: 1
  Latitude: 33.0198431
  Longitude: -96.6988856
  Status: operational
  Town: Plano
  Type: Local
- BGP Intermediate AS: null
  BGP Origin AS: null
  BGP Site Identifier: ''
  Country: US
  IPv4: true
  IPv6: true
  Identifiers: []
  Instances: 1
  Latitude: 33.0198431
  Longitude: -96.6988856
  Status: operational
  Town: Plano
  Type: Global
- BGP Intermediate AS: null
  BGP Origin AS: null
  BGP Site Identifier: ''
  Country: US
  IPv4: true
  IPv6: true
  Identifiers: []
  Instances: 1
  Latitude: 33.0198431
  Longitude: -96.6988856
  Status: operational
  Town: Plano
  Type: Global
- BGP Intermediate AS: null
  BGP Origin AS: null
  BGP Site Identifier: ''
  Country: US
  IPv4: true
  IPv6: true
  Identifiers: []
  Instances: 1
  Latitude: 37.3382082
  Longitude: -121.8863286
  Status: operational
  Town: San Jose
  Type: Global
- BGP Intermediate AS: null
  BGP Origin AS: null
  BGP Site Identifier: ''
  Country: US
  IPv4: true
  IPv6: true
  Identifiers: []
  Instances: 1
  Latitude: 37.3382082
  Longitude: -121.8863286
  Status: operational
  Town: San Jose
  Type: Local
- BGP Intermediate AS: null
  BGP Origin AS: null
  BGP Site Identifier: ''
  Country: US
  IPv4: true
  IPv6: true
  Identifiers: []
  Instances: 1
  Latitude: 37.3382082
  Longitude: -121.8863286
  Status: operational
  Town: San Jose
  Type: Global
- BGP Intermediate AS: null
  BGP Origin AS: null
  BGP Site Identifier: ''
  Country: US
  IPv4: true
  IPv6: true
  Identifiers: []
  Instances: 1
  Latitude: 37.3382082
  Longitude: -121.8863286
  Status: operational
  Town: San Jose
  Type: Global
- BGP Intermediate AS: null
  BGP Origin AS: null
  BGP Site Identifier: ''
  Country: US
  IPv4: true
  IPv6: true
  Identifiers: []
  Instances: 1
  Latitude: 47.6062095
  Longitude: -122.3320708
  Status: operational
  Town: Seattle
  Type: Global
- BGP Intermediate AS: null
  BGP Origin AS: null
  BGP Site Identifier: ''
  Country: US
  IPv4: true
  IPv6: true
  Identifiers: []
  Instances: 1
  Latitude: 47.6062095
  Longitude: -122.3320708
  Status: operational
  Town: Seattle
  Type: Local
- BGP Intermediate AS: null
  BGP Origin AS: null
  BGP Site Identifier: ''
  Country: US
  IPv4: true
  IPv6: true
  Identifiers: []
  Instances: 1
  Latitude: 47.6062095
  Longitude: -122.3320708
  Status: operational
  Town: Seattle
  Type: Local
- BGP Intermediate AS: null
  BGP Origin AS: null
  BGP Site Identifier: ''
  Country: SG
  IPv4: true
  IPv6: true
  Identifiers: []
  Instances: 1
  Latitude: 1.2800945
  Longitude: 103.8509491
  Status: operational
  Town: Singapore
  Type: Local
- BGP Intermediate AS: null
  BGP Origin AS: null
  BGP Site Identifier: ''
  Country: SG
  IPv4: true
  IPv6: true
  Identifiers: []
  Instances: 1
  Latitude: 1.2800945
  Longitude: 103.8509491
  Status: operational
  Town: Singapore
  Type: Global
- BGP Intermediate AS: null
  BGP Origin AS: null
  BGP Site Identifier: ''
  Country: SG
  IPv4: true
  IPv6: true
  Identifiers: []
  Instances: 1
  Latitude: 1.2800945
  Longitude: 103.8509491
  Status: operational
  Town: Singapore
  Type: Global
- BGP Intermediate AS: null
  BGP Origin AS: null
  BGP Site Identifier: ''
  Country: SE
  IPv4: true
  IPv6: true
  Identifiers: []
  Instances: 1
  Latitude: 59.3293235
  Longitude: 18.0685808
  Status: operational
  Town: Stockholm
  Type: Global
- BGP Intermediate AS: null
  BGP Origin AS: null
  BGP Site Identifier: ''
  Country: SE
  IPv4: true
  IPv6: true
  Identifiers: []
  Instances: 1
  Latitude: 59.3293235
  Longitude: 18.0685808
  Status: operational
  Town: Stockholm
  Type: Global
- BGP Intermediate AS: null
  BGP Origin AS: null
  BGP Site Identifier: ''
  Country: SE
  IPv4: true
  IPv6: true
  Identifiers: []
  Instances: 1
  Latitude: 59.3293235
  Longitude: 18.0685808
  Status: operational
  Town: Stockholm
  Type: Local
- BGP Intermediate AS: null
  BGP Origin AS: null
  BGP Site Identifier: ''
  Country: JP
  IPv4: true
  IPv6: true
  Identifiers: []
  Instances: 1
  Latitude: 35.6894875
  Longitude: 139.6917064
  Status: operational
  Town: Tokyo
  Type: Local
- BGP Intermediate AS: null
  BGP Origin AS: null
  BGP Site Identifier: ''
  Country: JP
  IPv4: true
  IPv6: true
  Identifiers: []
  Instances: 1
  Latitude: 35.6894875
  Longitude: 139.6917064
  Status: operational
  Town: Tokyo
  Type: Global
- BGP Intermediate AS: null
  BGP Origin AS: null
  BGP Site Identifier: ''
  Country: JP
  IPv4: true
  IPv6: true
  Identifiers: []
  Instances: 1
  Latitude: 35.6894875
  Longitude: 139.6917064
  Status: operational
  Town: Tokyo
  Type: Global
- BGP Intermediate AS: null
  BGP Origin AS: null
  BGP Site Identifier: ''
  Country: JP
  IPv4: true
  IPv6: true
  Identifiers: []
  Instances: 1
  Latitude: 35.6894875
  Longitude: 139.6917064
  Status: operational
  Town: Tokyo
  Type: Global
- BGP Intermediate AS: null
  BGP Origin AS: null
  BGP Site Identifier: ''
  Country: US
  IPv4: true
  IPv6: true
  Identifiers: []
  Instances: 1
  Latitude: 38.8950368
  Longitude: -77.0365427
  Status: operational
  Town: Washington DC
  Type: Global
- BGP Intermediate AS: null
  BGP Origin AS: null
  BGP Site Identifier: ''
  Country: US
  IPv4: true
  IPv6: true
  Identifiers: []
  Instances: 1
  Latitude: 38.8950368
  Longitude: -77.0365427
  Status: operational
  Town: Washington DC
  Type: Global
Statistics: https://a.root-servers.org/metrics/index.html
