ASN: 26415
BGP Community Convention: ''
BGP Extended Community Convention: ''
BGP Large Community Convention: ''
Contact Email: rootdns@verisign.com
Homepage: https://j.root-servers.org/
IPv4: 192.58.128.30
IPv6: 2001:503:c27::2:30
Identifier Naming Convention: ''
Operator: Verisign, Inc.
Peering Policy: https://www.peeringdb.com/net/873
RSSAC: https://j.root-servers.org/metrics/index.html
RSSAC001: ''
Sites:
- BGP Intermediate AS: null
  BGP Origin AS: null
  BGP Site Identifier: ''
  Country: NL
  IPv4: true
  IPv6: true
  Identifiers: []
  Instances: 1
  Latitude: 52.3702157
  Longitude: 4.8951679
  Status: operational
  Town: Amsterdam
  Type: Local
- BGP Intermediate AS: null
  BGP Origin AS: null
  BGP Site Identifier: ''
  Country: NL
  IPv4: true
  IPv6: true
  Identifiers: []
  Instances: 1
  Latitude: 52.3702157
  Longitude: 4.8951679
  Status: operational
  Town: Amsterdam
  Type: Global
- BGP Intermediate AS: null
  BGP Origin AS: null
  BGP Site Identifier: ''
  Country: NL
  IPv4: true
  IPv6: true
  Identifiers: []
  Instances: 1
  Latitude: 52.3702157
  Longitude: 4.8951679
  Status: operational
  Town: Amsterdam
  Type: Global
- BGP Intermediate AS: null
  BGP Origin AS: null
  BGP Site Identifier: ''
  Country: NL
  IPv4: true
  IPv6: true
  Identifiers: []
  Instances: 1
  Latitude: 52.3702157
  Longitude: 4.8951679
  Status: operational
  Town: Amsterdam
  Type: Global
- BGP Intermediate AS: null
  BGP Origin AS: null
  BGP Site Identifier: ''
  Country: NL
  IPv4: true
  IPv6: true
  Identifiers: []
  Instances: 1
  Latitude: 52.3702157
  Longitude: 4.8951679
  Status: operational
  Town: Amsterdam
  Type: Local
- BGP Intermediate AS: null
  BGP Origin AS: null
  BGP Site Identifier: ''
  Country: US
  IPv4: true
  IPv6: true
  Identifiers: []
  Instances: 1
  Latitude: 39.0437567
  Longitude: -77.4874416
  Status: operational
  Town: Ashburn
  Type: Local
- BGP Intermediate AS: null
  BGP Origin AS: null
  BGP Site Identifier: ''
  Country: US
  IPv4: true
  IPv6: true
  Identifiers: []
  Instances: 1
  Latitude: 39.0437567
  Longitude: -77.4874416
  Status: operational
  Town: Ashburn
  Type: Global
- BGP Intermediate AS: null
  BGP Origin AS: null
  BGP Site Identifier: ''
  Country: US
  IPv4: true
  IPv6: true
  Identifiers: []
  Instances: 1
  Latitude: 39.0437567
  Longitude: -77.4874416
  Status: operational
  Town: Ashburn
  Type: Local
- BGP Intermediate AS: null
  BGP Origin AS: null
  BGP Site Identifier: ''
  Country: GR
  IPv4: true
  IPv6: true
  Identifiers: []
  Instances: 1
  Latitude: 37.983917
  Longitude: 23.7293599
  Status: operational
  Town: Athens
  Type: Local
- BGP Intermediate AS: null
  BGP Origin AS: null
  BGP Site Identifier: ''
  Country: US
  IPv4: true
  IPv6: true
  Identifiers: []
  Instances: 1
  Latitude: 33.7489954
  Longitude: -84.3879824
  Status: operational
  Town: Atlanta
  Type: Local
- BGP Intermediate AS: null
  BGP Origin AS: null
  BGP Site Identifier: ''
  Country: IN
  IPv4: true
  IPv6: false
  Identifiers: []
  Instances: 1
  Latitude: 12.9715987
  Longitude: 77.5945627
  Status: operational
  Town: Bangalore
  Type: Global
- BGP Intermediate AS: null
  BGP Origin AS: null
  BGP Site Identifier: ''
  Country: TH
  IPv4: true
  IPv6: true
  Identifiers: []
  Instances: 1
  Latitude: 13.7563309
  Longitude: 100.5017651
  Status: operational
  Town: Bangkok
  Type: Local
- BGP Intermediate AS: null
  BGP Origin AS: null
  BGP Site Identifier: ''
  Country: TH
  IPv4: true
  IPv6: false
  Identifiers: []
  Instances: 1
  Latitude: 13.7563309
  Longitude: 100.5017651
  Status: operational
  Town: Bangkok
  Type: Global
- BGP Intermediate AS: null
  BGP Origin AS: null
  BGP Site Identifier: ''
  Country: ES
  IPv4: true
  IPv6: true
  Identifiers: []
  Instances: 1
  Latitude: 41.3850639
  Longitude: 2.1734035
  Status: operational
  Town: Barcelona
  Type: Local
- BGP Intermediate AS: null
  BGP Origin AS: null
  BGP Site Identifier: ''
  Country: CN
  IPv4: true
  IPv6: true
  Identifiers: []
  Instances: 1
  Latitude: 39.904211
  Longitude: 116.407395
  Status: operational
  Town: Beijing
  Type: Global
- BGP Intermediate AS: null
  BGP Origin AS: null
  BGP Site Identifier: ''
  Country: LB
  IPv4: true
  IPv6: true
  Identifiers: []
  Instances: 1
  Latitude: 33.8886289
  Longitude: 35.4954794
  Status: operational
  Town: Beirut
  Type: Local
- BGP Intermediate AS: null
  BGP Origin AS: null
  BGP Site Identifier: ''
  Country: RS
  IPv4: true
  IPv6: true
  Identifiers: []
  Instances: 1
  Latitude: 44.786568
  Longitude: 20.4489216
  Status: operational
  Town: Belgrade
  Type: Local
- BGP Intermediate AS: null
  BGP Origin AS: null
  BGP Site Identifier: ''
  Country: DE
  IPv4: true
  IPv6: true
  Identifiers: []
  Instances: 1
  Latitude: 52.5200066
  Longitude: 13.404954
  Status: operational
  Town: Berlin
  Type: Global
- BGP Intermediate AS: null
  BGP Origin AS: null
  BGP Site Identifier: ''
  Country: DE
  IPv4: true
  IPv6: true
  Identifiers: []
  Instances: 1
  Latitude: 52.5200066
  Longitude: 13.404954
  Status: operational
  Town: Berlin
  Type: Local
- BGP Intermediate AS: null
  BGP Origin AS: null
  BGP Site Identifier: ''
  Country: LU
  IPv4: true
  IPv6: true
  Identifiers: []
  Instances: 1
  Latitude: 49.5192118
  Longitude: 6.1002461
  Status: operational
  Town: Bettembourg
  Type: Local
- BGP Intermediate AS: null
  BGP Origin AS: null
  BGP Site Identifier: ''
  Country: US
  IPv4: true
  IPv6: true
  Identifiers: []
  Instances: 1
  Latitude: 39.165325
  Longitude: -86.5263857
  Status: operational
  Town: Bloomington
  Type: Global
- BGP Intermediate AS: null
  BGP Origin AS: null
  BGP Site Identifier: ''
  Country: SK
  IPv4: true
  IPv6: true
  Identifiers: []
  Instances: 1
  Latitude: 48.1458923
  Longitude: 17.1071373
  Status: operational
  Town: Bratislava
  Type: Local
- BGP Intermediate AS: null
  BGP Origin AS: null
  BGP Site Identifier: ''
  Country: AU
  IPv4: true
  IPv6: true
  Identifiers: []
  Instances: 1
  Latitude: -27.4697707
  Longitude: 153.0251235
  Status: operational
  Town: Brisbane
  Type: Global
- BGP Intermediate AS: null
  BGP Origin AS: null
  BGP Site Identifier: ''
  Country: AR
  IPv4: true
  IPv6: true
  Identifiers: []
  Instances: 1
  Latitude: -34.6037232
  Longitude: -58.3815931
  Status: operational
  Town: Buenos Aires
  Type: Local
- BGP Intermediate AS: null
  BGP Origin AS: null
  BGP Site Identifier: ''
  Country: CA
  IPv4: true
  IPv6: true
  Identifiers: []
  Instances: 1
  Latitude: 51.0486151
  Longitude: -114.0708459
  Status: operational
  Town: Calgary
  Type: Local
- BGP Intermediate AS: null
  BGP Origin AS: null
  BGP Site Identifier: ''
  Country: ZA
  IPv4: true
  IPv6: true
  Identifiers: []
  Instances: 1
  Latitude: -33.9248685
  Longitude: 18.4240553
  Status: operational
  Town: Cape Town
  Type: Local
- BGP Intermediate AS: null
  BGP Origin AS: null
  BGP Site Identifier: ''
  Country: US
  IPv4: true
  IPv6: true
  Identifiers: []
  Instances: 1
  Latitude: 41.8781136
  Longitude: -87.6297982
  Status: operational
  Town: Chicago
  Type: Local
- BGP Intermediate AS: null
  BGP Origin AS: null
  BGP Site Identifier: ''
  Country: US
  IPv4: true
  IPv6: true
  Identifiers: []
  Instances: 1
  Latitude: 41.8781136
  Longitude: -87.6297982
  Status: operational
  Town: Chicago
  Type: Global
- BGP Intermediate AS: null
  BGP Origin AS: null
  BGP Site Identifier: ''
  Country: US
  IPv4: true
  IPv6: true
  Identifiers: []
  Instances: 1
  Latitude: 41.8781136
  Longitude: -87.6297982
  Status: operational
  Town: Chicago
  Type: Global
- BGP Intermediate AS: null
  BGP Origin AS: null
  BGP Site Identifier: ''
  Country: US
  IPv4: true
  IPv6: true
  Identifiers: []
  Instances: 1
  Latitude: 41.8781136
  Longitude: -87.6297982
  Status: operational
  Town: Chicago
  Type: Global
- BGP Intermediate AS: null
  BGP Origin AS: null
  BGP Site Identifier: ''
  Country: US
  IPv4: true
  IPv6: true
  Identifiers: []
  Instances: 1
  Latitude: 41.8781136
  Longitude: -87.6297982
  Status: operational
  Town: Chicago
  Type: Local
- BGP Intermediate AS: null
  BGP Origin AS: null
  BGP Site Identifier: ''
  Country: US
  IPv4: true
  IPv6: true
  Identifiers: []
  Instances: 1
  Latitude: 41.8781136
  Longitude: -87.6297982
  Status: operational
  Town: Chicago
  Type: Local
- BGP Intermediate AS: null
  BGP Origin AS: null
  BGP Site Identifier: ''
  Country: US
  IPv4: true
  IPv6: true
  Identifiers: []
  Instances: 1
  Latitude: 35.2431063
  Longitude: -77.586366
  Status: operational
  Town: Climax
  Type: Global
- BGP Intermediate AS: null
  BGP Origin AS: null
  BGP Site Identifier: ''
  Country: LK
  IPv4: true
  IPv6: true
  Identifiers: []
  Instances: 1
  Latitude: 6.9270786
  Longitude: 79.861243
  Status: operational
  Town: Colombo
  Type: Global
- BGP Intermediate AS: null
  BGP Origin AS: null
  BGP Site Identifier: ''
  Country: AR
  IPv4: true
  IPv6: true
  Identifiers: []
  Instances: 1
  Latitude: -31.4173391
  Longitude: -64.183319
  Status: operational
  Town: Córdoba
  Type: Local
- BGP Intermediate AS: null
  BGP Origin AS: null
  BGP Site Identifier: ''
  Country: TZ
  IPv4: true
  IPv6: true
  Identifiers: []
  Instances: 1
  Latitude: -6.8
  Longitude: 39.283333
  Status: operational
  Town: Dar es Salaam
  Type: Local
- BGP Intermediate AS: null
  BGP Origin AS: null
  BGP Site Identifier: ''
  Country: US
  IPv4: true
  IPv6: true
  Identifiers: []
  Instances: 1
  Latitude: 39.7392358
  Longitude: -104.990251
  Status: operational
  Town: Denver
  Type: Local
- BGP Intermediate AS: null
  BGP Origin AS: null
  BGP Site Identifier: ''
  Country: US
  IPv4: true
  IPv6: true
  Identifiers: []
  Instances: 1
  Latitude: 41.6005448
  Longitude: -93.6091064
  Status: operational
  Town: Des Moines
  Type: Global
- BGP Intermediate AS: null
  BGP Origin AS: null
  BGP Site Identifier: ''
  Country: BD
  IPv4: true
  IPv6: true
  Identifiers: []
  Instances: 1
  Latitude: 23.810332
  Longitude: 90.4125181
  Status: operational
  Town: Dhaka
  Type: Local
- BGP Intermediate AS: null
  BGP Origin AS: null
  BGP Site Identifier: ''
  Country: DJ
  IPv4: true
  IPv6: true
  Identifiers: []
  Instances: 1
  Latitude: 11.5720765
  Longitude: 43.1456475
  Status: operational
  Town: Djibouti City
  Type: Local
- BGP Intermediate AS: null
  BGP Origin AS: null
  BGP Site Identifier: ''
  Country: IE
  IPv4: true
  IPv6: true
  Identifiers: []
  Instances: 1
  Latitude: 53.3498053
  Longitude: -6.2603097
  Status: operational
  Town: Dublin
  Type: Local
- BGP Intermediate AS: null
  BGP Origin AS: null
  BGP Site Identifier: ''
  Country: US
  IPv4: true
  IPv6: true
  Identifiers: []
  Instances: 1
  Latitude: 44.811349
  Longitude: -91.4984941
  Status: operational
  Town: Eau Claire
  Type: Global
- BGP Intermediate AS: null
  BGP Origin AS: null
  BGP Site Identifier: ''
  Country: GB
  IPv4: true
  IPv6: true
  Identifiers: []
  Instances: 1
  Latitude: 55.953252
  Longitude: -3.188267
  Status: operational
  Town: Edinburgh
  Type: Local
- BGP Intermediate AS: null
  BGP Origin AS: null
  BGP Site Identifier: ''
  Country: DE
  IPv4: true
  IPv6: true
  Identifiers: []
  Instances: 1
  Latitude: 50.1109221
  Longitude: 8.6821267
  Status: operational
  Town: Frankfurt
  Type: Local
- BGP Intermediate AS: null
  BGP Origin AS: null
  BGP Site Identifier: ''
  Country: DE
  IPv4: true
  IPv6: true
  Identifiers: []
  Instances: 1
  Latitude: 50.1109221
  Longitude: 8.6821267
  Status: operational
  Town: Frankfurt
  Type: Global
- BGP Intermediate AS: null
  BGP Origin AS: null
  BGP Site Identifier: ''
  Country: DE
  IPv4: true
  IPv6: true
  Identifiers: []
  Instances: 1
  Latitude: 50.1109221
  Longitude: 8.6821267
  Status: operational
  Town: Frankfurt
  Type: Global
- BGP Intermediate AS: null
  BGP Origin AS: null
  BGP Site Identifier: ''
  Country: DE
  IPv4: true
  IPv6: true
  Identifiers: []
  Instances: 1
  Latitude: 50.1109221
  Longitude: 8.6821267
  Status: operational
  Town: Frankfurt
  Type: Local
- BGP Intermediate AS: null
  BGP Origin AS: null
  BGP Site Identifier: ''
  Country: DE
  IPv4: true
  IPv6: true
  Identifiers: []
  Instances: 1
  Latitude: 50.1109221
  Longitude: 8.6821267
  Status: operational
  Town: Frankfurt
  Type: Global
- BGP Intermediate AS: null
  BGP Origin AS: null
  BGP Site Identifier: ''
  Country: CH
  IPv4: true
  IPv6: true
  Identifiers: []
  Instances: 1
  Latitude: 46.2043907
  Longitude: 6.1431577
  Status: operational
  Town: Geneva
  Type: Global
- BGP Intermediate AS: null
  BGP Origin AS: null
  BGP Site Identifier: ''
  Country: BR
  IPv4: true
  IPv6: false
  Identifiers: []
  Instances: 1
  Latitude: -6.8512706
  Longitude: -35.4922422
  Status: operational
  Town: Guarabira
  Type: Global
- BGP Intermediate AS: null
  BGP Origin AS: null
  BGP Site Identifier: ''
  Country: CA
  IPv4: true
  IPv6: true
  Identifiers: []
  Instances: 1
  Latitude: 44.6488625
  Longitude: -63.5753196
  Status: operational
  Town: Halifax
  Type: Local
- BGP Intermediate AS: null
  BGP Origin AS: null
  BGP Site Identifier: ''
  Country: FI
  IPv4: true
  IPv6: true
  Identifiers: []
  Instances: 1
  Latitude: 60.1733244
  Longitude: 24.9410248
  Status: operational
  Town: Helsinki
  Type: Local
- BGP Intermediate AS: null
  BGP Origin AS: null
  BGP Site Identifier: ''
  Country: CN
  IPv4: true
  IPv6: true
  Identifiers: []
  Instances: 1
  Latitude: 22.2783151
  Longitude: 114.174695
  Status: operational
  Town: Hong Kong
  Type: Global
- BGP Intermediate AS: null
  BGP Origin AS: null
  BGP Site Identifier: ''
  Country: CN
  IPv4: true
  IPv6: false
  Identifiers: []
  Instances: 1
  Latitude: 30.8942995
  Longitude: 120.0851114
  Status: operational
  Town: Huzhou
  Type: Global
- BGP Intermediate AS: null
  BGP Origin AS: null
  BGP Site Identifier: ''
  Country: TR
  IPv4: true
  IPv6: true
  Identifiers: []
  Instances: 1
  Latitude: 41.0082376
  Longitude: 28.9783589
  Status: operational
  Town: Istanbul
  Type: Global
- BGP Intermediate AS: null
  BGP Origin AS: null
  BGP Site Identifier: ''
  Country: ID
  IPv4: true
  IPv6: false
  Identifiers: []
  Instances: 1
  Latitude: -6.2087634
  Longitude: 106.845599
  Status: operational
  Town: Jakarta
  Type: Local
- BGP Intermediate AS: null
  BGP Origin AS: null
  BGP Site Identifier: ''
  Country: ZA
  IPv4: true
  IPv6: true
  Identifiers: []
  Instances: 1
  Latitude: -26.2041028
  Longitude: 28.0473051
  Status: operational
  Town: Johannesburg
  Type: Local
- BGP Intermediate AS: null
  BGP Origin AS: null
  BGP Site Identifier: ''
  Country: BR
  IPv4: true
  IPv6: false
  Identifiers: []
  Instances: 1
  Latitude: -7.0686636
  Longitude: -36.5770599
  Status: operational
  Town: Juazeirinho
  Type: Global
- BGP Intermediate AS: null
  BGP Origin AS: null
  BGP Site Identifier: ''
  Country: US
  IPv4: true
  IPv6: true
  Identifiers: []
  Instances: 1
  Latitude: 39.0997265
  Longitude: -94.5785667
  Status: operational
  Town: Kansas City
  Type: Local
- BGP Intermediate AS: null
  BGP Origin AS: null
  BGP Site Identifier: ''
  Country: NP
  IPv4: true
  IPv6: false
  Identifiers: []
  Instances: 1
  Latitude: 27.7172453
  Longitude: 85.3239605
  Status: operational
  Town: Kathmandu
  Type: Global
- BGP Intermediate AS: null
  BGP Origin AS: null
  BGP Site Identifier: ''
  Country: UA
  IPv4: true
  IPv6: true
  Identifiers: []
  Instances: 1
  Latitude: 50.4501
  Longitude: 30.5234
  Status: operational
  Town: Kiev
  Type: Local
- BGP Intermediate AS: null
  BGP Origin AS: null
  BGP Site Identifier: ''
  Country: RW
  IPv4: true
  IPv6: true
  Identifiers: []
  Instances: 1
  Latitude: -1.9705786
  Longitude: 30.1044288
  Status: operational
  Town: Kigali City
  Type: Local
- BGP Intermediate AS: null
  BGP Origin AS: null
  BGP Site Identifier: ''
  Country: AT
  IPv4: true
  IPv6: true
  Identifiers: []
  Instances: 1
  Latitude: 46.6364598
  Longitude: 14.3122246
  Status: operational
  Town: Klagenfurt
  Type: Local
- BGP Intermediate AS: null
  BGP Origin AS: null
  BGP Site Identifier: ''
  Country: MY
  IPv4: true
  IPv6: true
  Identifiers: []
  Instances: 1
  Latitude: 3.139003
  Longitude: 101.686855
  Status: operational
  Town: Kuala Lumpur
  Type: Global
- BGP Intermediate AS: null
  BGP Origin AS: null
  BGP Site Identifier: ''
  Country: KW
  IPv4: true
  IPv6: true
  Identifiers: []
  Instances: 1
  Latitude: 29.375859
  Longitude: 47.9774052
  Status: operational
  Town: Kuwait City
  Type: Global
- BGP Intermediate AS: null
  BGP Origin AS: null
  BGP Site Identifier: ''
  Country: NG
  IPv4: true
  IPv6: true
  Identifiers: []
  Instances: 1
  Latitude: 6.5243793
  Longitude: 3.3792057
  Status: operational
  Town: Lagos
  Type: Local
- BGP Intermediate AS: null
  BGP Origin AS: null
  BGP Site Identifier: ''
  Country: GB
  IPv4: true
  IPv6: true
  Identifiers: []
  Instances: 1
  Latitude: 53.8007554
  Longitude: -1.5490774
  Status: operational
  Town: Leeds
  Type: Local
- BGP Intermediate AS: null
  BGP Origin AS: null
  BGP Site Identifier: ''
  Country: PE
  IPv4: true
  IPv6: true
  Identifiers: []
  Instances: 1
  Latitude: -12.0621065
  Longitude: -77.0365256
  Status: operational
  Town: Lima
  Type: Local
- BGP Intermediate AS: null
  BGP Origin AS: null
  BGP Site Identifier: ''
  Country: PT
  IPv4: true
  IPv6: true
  Identifiers: []
  Instances: 1
  Latitude: 38.7222524
  Longitude: -9.1393366
  Status: operational
  Town: Lisbon
  Type: Local
- BGP Intermediate AS: null
  BGP Origin AS: null
  BGP Site Identifier: ''
  Country: SI
  IPv4: true
  IPv6: true
  Identifiers: []
  Instances: 1
  Latitude: 46.0569465
  Longitude: 14.5057515
  Status: operational
  Town: Ljubljana
  Type: Global
- BGP Intermediate AS: null
  BGP Origin AS: null
  BGP Site Identifier: ''
  Country: GB
  IPv4: true
  IPv6: true
  Identifiers: []
  Instances: 1
  Latitude: 51.5073509
  Longitude: -0.1277583
  Status: operational
  Town: London
  Type: Global
- BGP Intermediate AS: null
  BGP Origin AS: null
  BGP Site Identifier: ''
  Country: GB
  IPv4: true
  IPv6: true
  Identifiers: []
  Instances: 1
  Latitude: 51.5073509
  Longitude: -0.1277583
  Status: operational
  Town: London
  Type: Local
- BGP Intermediate AS: null
  BGP Origin AS: null
  BGP Site Identifier: ''
  Country: GB
  IPv4: true
  IPv6: true
  Identifiers: []
  Instances: 1
  Latitude: 51.5073509
  Longitude: -0.1277583
  Status: operational
  Town: London
  Type: Local
- BGP Intermediate AS: null
  BGP Origin AS: null
  BGP Site Identifier: ''
  Country: GB
  IPv4: true
  IPv6: true
  Identifiers: []
  Instances: 1
  Latitude: 51.5073509
  Longitude: -0.1277583
  Status: operational
  Town: London
  Type: Global
- BGP Intermediate AS: null
  BGP Origin AS: null
  BGP Site Identifier: ''
  Country: GB
  IPv4: true
  IPv6: true
  Identifiers: []
  Instances: 1
  Latitude: 51.5073509
  Longitude: -0.1277583
  Status: operational
  Town: London
  Type: Global
- BGP Intermediate AS: null
  BGP Origin AS: null
  BGP Site Identifier: ''
  Country: GB
  IPv4: true
  IPv6: true
  Identifiers: []
  Instances: 1
  Latitude: 51.5073509
  Longitude: -0.1277583
  Status: operational
  Town: London
  Type: Global
- BGP Intermediate AS: null
  BGP Origin AS: null
  BGP Site Identifier: ''
  Country: GB
  IPv4: true
  IPv6: true
  Identifiers: []
  Instances: 1
  Latitude: 51.5073509
  Longitude: -0.1277583
  Status: operational
  Town: London
  Type: Global
- BGP Intermediate AS: null
  BGP Origin AS: null
  BGP Site Identifier: ''
  Country: US
  IPv4: true
  IPv6: true
  Identifiers: []
  Instances: 1
  Latitude: 34.0522342
  Longitude: -118.2436849
  Status: operational
  Town: Los Angeles
  Type: Global
- BGP Intermediate AS: null
  BGP Origin AS: null
  BGP Site Identifier: ''
  Country: US
  IPv4: true
  IPv6: true
  Identifiers: []
  Instances: 1
  Latitude: 34.0522342
  Longitude: -118.2436849
  Status: operational
  Town: Los Angeles
  Type: Global
- BGP Intermediate AS: null
  BGP Origin AS: null
  BGP Site Identifier: ''
  Country: US
  IPv4: true
  IPv6: true
  Identifiers: []
  Instances: 1
  Latitude: 34.0522342
  Longitude: -118.2436849
  Status: operational
  Town: Los Angeles
  Type: Local
- BGP Intermediate AS: null
  BGP Origin AS: null
  BGP Site Identifier: ''
  Country: US
  IPv4: true
  IPv6: true
  Identifiers: []
  Instances: 1
  Latitude: 34.0522342
  Longitude: -118.2436849
  Status: operational
  Town: Los Angeles
  Type: Local
- BGP Intermediate AS: null
  BGP Origin AS: null
  BGP Site Identifier: ''
  Country: AO
  IPv4: true
  IPv6: true
  Identifiers: []
  Instances: 1
  Latitude: -8.8399876
  Longitude: 13.2894368
  Status: operational
  Town: Luanda
  Type: Local
- BGP Intermediate AS: null
  BGP Origin AS: null
  BGP Site Identifier: ''
  Country: MV
  IPv4: true
  IPv6: true
  Identifiers: []
  Instances: 1
  Latitude: 4.1754959
  Longitude: 73.5093474
  Status: operational
  Town: Male
  Type: Global
- BGP Intermediate AS: null
  BGP Origin AS: null
  BGP Site Identifier: ''
  Country: FR
  IPv4: true
  IPv6: true
  Identifiers: []
  Instances: 1
  Latitude: 43.2961743
  Longitude: 5.3699525
  Status: operational
  Town: Marseille
  Type: Global
- BGP Intermediate AS: null
  BGP Origin AS: null
  BGP Site Identifier: ''
  Country: FR
  IPv4: true
  IPv6: true
  Identifiers: []
  Instances: 1
  Latitude: 43.2961743
  Longitude: 5.3699525
  Status: operational
  Town: Marseille
  Type: Global
- BGP Intermediate AS: null
  BGP Origin AS: null
  BGP Site Identifier: ''
  Country: AU
  IPv4: true
  IPv6: true
  Identifiers: []
  Instances: 1
  Latitude: -37.814107
  Longitude: 144.96328
  Status: operational
  Town: Melbourne
  Type: Global
- BGP Intermediate AS: null
  BGP Origin AS: null
  BGP Site Identifier: ''
  Country: US
  IPv4: true
  IPv6: true
  Identifiers: []
  Instances: 1
  Latitude: 25.7616798
  Longitude: -80.1917902
  Status: operational
  Town: Miami
  Type: Global
- BGP Intermediate AS: null
  BGP Origin AS: null
  BGP Site Identifier: ''
  Country: US
  IPv4: true
  IPv6: true
  Identifiers: []
  Instances: 1
  Latitude: 25.7616798
  Longitude: -80.1917902
  Status: operational
  Town: Miami
  Type: Local
- BGP Intermediate AS: null
  BGP Origin AS: null
  BGP Site Identifier: ''
  Country: IT
  IPv4: true
  IPv6: true
  Identifiers: []
  Instances: 1
  Latitude: 45.4654219
  Longitude: 9.1859243
  Status: operational
  Town: Milan
  Type: Local
- BGP Intermediate AS: null
  BGP Origin AS: null
  BGP Site Identifier: ''
  Country: RU
  IPv4: true
  IPv6: true
  Identifiers: []
  Instances: 1
  Latitude: 55.755826
  Longitude: 37.6173
  Status: operational
  Town: Moscow
  Type: Local
- BGP Intermediate AS: null
  BGP Origin AS: null
  BGP Site Identifier: ''
  Country: IN
  IPv4: true
  IPv6: false
  Identifiers: []
  Instances: 1
  Latitude: 19.0759837
  Longitude: 72.8776559
  Status: operational
  Town: Mumbai
  Type: Global
- BGP Intermediate AS: null
  BGP Origin AS: null
  BGP Site Identifier: ''
  Country: IN
  IPv4: true
  IPv6: true
  Identifiers: []
  Instances: 1
  Latitude: 19.0759837
  Longitude: 72.8776559
  Status: operational
  Town: Mumbai
  Type: Local
- BGP Intermediate AS: null
  BGP Origin AS: null
  BGP Site Identifier: ''
  Country: OM
  IPv4: true
  IPv6: true
  Identifiers: []
  Instances: 1
  Latitude: 23.58589
  Longitude: 58.4059227
  Status: operational
  Town: Muscat
  Type: Global
- BGP Intermediate AS: null
  BGP Origin AS: null
  BGP Site Identifier: ''
  Country: KE
  IPv4: true
  IPv6: true
  Identifiers: []
  Instances: 1
  Latitude: -1.2920659
  Longitude: 36.8219462
  Status: operational
  Town: Nairobi
  Type: Local
- BGP Intermediate AS: null
  BGP Origin AS: null
  BGP Site Identifier: ''
  Country: IN
  IPv4: true
  IPv6: false
  Identifiers: []
  Instances: 1
  Latitude: 28.6139391
  Longitude: 77.2090212
  Status: operational
  Town: New Delhi
  Type: Global
- BGP Intermediate AS: null
  BGP Origin AS: null
  BGP Site Identifier: ''
  Country: US
  IPv4: true
  IPv6: true
  Identifiers: []
  Instances: 1
  Latitude: 40.7127837
  Longitude: -74.0059413
  Status: operational
  Town: New York
  Type: Global
- BGP Intermediate AS: null
  BGP Origin AS: null
  BGP Site Identifier: ''
  Country: US
  IPv4: true
  IPv6: true
  Identifiers: []
  Instances: 1
  Latitude: 40.7127837
  Longitude: -74.0059413
  Status: operational
  Town: New York
  Type: Local
- BGP Intermediate AS: null
  BGP Origin AS: null
  BGP Site Identifier: ''
  Country: 'NO'
  IPv4: true
  IPv6: true
  Identifiers: []
  Instances: 1
  Latitude: 59.9138688
  Longitude: 10.7522454
  Status: operational
  Town: Oslo
  Type: Local
- BGP Intermediate AS: null
  BGP Origin AS: null
  BGP Site Identifier: ''
  Country: FI
  IPv4: true
  IPv6: true
  Identifiers: []
  Instances: 1
  Latitude: 65.0120888
  Longitude: 25.4650773
  Status: operational
  Town: Oulu
  Type: Local
- BGP Intermediate AS: null
  BGP Origin AS: null
  BGP Site Identifier: ''
  Country: FR
  IPv4: true
  IPv6: true
  Identifiers: []
  Instances: 1
  Latitude: 48.856614
  Longitude: 2.3522219
  Status: operational
  Town: Paris
  Type: Global
- BGP Intermediate AS: null
  BGP Origin AS: null
  BGP Site Identifier: ''
  Country: FR
  IPv4: true
  IPv6: true
  Identifiers: []
  Instances: 1
  Latitude: 48.856614
  Longitude: 2.3522219
  Status: operational
  Town: Paris
  Type: Local
- BGP Intermediate AS: null
  BGP Origin AS: null
  BGP Site Identifier: ''
  Country: AU
  IPv4: true
  IPv6: true
  Identifiers: []
  Instances: 1
  Latitude: -31.9535132
  Longitude: 115.8570471
  Status: operational
  Town: Perth
  Type: Local
- BGP Intermediate AS: null
  BGP Origin AS: null
  BGP Site Identifier: ''
  Country: US
  IPv4: true
  IPv6: true
  Identifiers: []
  Instances: 1
  Latitude: 39.9525839
  Longitude: -75.1652215
  Status: operational
  Town: Philadelphia
  Type: Local
- BGP Intermediate AS: null
  BGP Origin AS: null
  BGP Site Identifier: ''
  Country: BR
  IPv4: true
  IPv6: true
  Identifiers: []
  Instances: 1
  Latitude: -21.9689374
  Longitude: -47.4098328
  Status: operational
  Town: Pirassununga
  Type: Global
- BGP Intermediate AS: null
  BGP Origin AS: null
  BGP Site Identifier: ''
  Country: US
  IPv4: true
  IPv6: true
  Identifiers: []
  Instances: 1
  Latitude: 33.0198431
  Longitude: -96.6988856
  Status: operational
  Town: Plano
  Type: Local
- BGP Intermediate AS: null
  BGP Origin AS: null
  BGP Site Identifier: ''
  Country: US
  IPv4: true
  IPv6: true
  Identifiers: []
  Instances: 1
  Latitude: 33.0198431
  Longitude: -96.6988856
  Status: operational
  Town: Plano
  Type: Global
- BGP Intermediate AS: null
  BGP Origin AS: null
  BGP Site Identifier: ''
  Country: US
  IPv4: true
  IPv6: true
  Identifiers: []
  Instances: 1
  Latitude: 33.0198431
  Longitude: -96.6988856
  Status: operational
  Town: Plano
  Type: Local
- BGP Intermediate AS: null
  BGP Origin AS: null
  BGP Site Identifier: ''
  Country: CZ
  IPv4: true
  IPv6: true
  Identifiers: []
  Instances: 1
  Latitude: 50.0755381
  Longitude: 14.4378005
  Status: operational
  Town: Prague
  Type: Local
- BGP Intermediate AS: null
  BGP Origin AS: null
  BGP Site Identifier: ''
  Country: TT
  IPv4: true
  IPv6: true
  Identifiers: []
  Instances: 1
  Latitude: 10.2659505
  Longitude: -61.3764381
  Status: operational
  Town: Princes Town
  Type: Global
- BGP Intermediate AS: null
  BGP Origin AS: null
  BGP Site Identifier: ''
  Country: PH
  IPv4: true
  IPv6: false
  Identifiers: []
  Instances: 1
  Latitude: 14.6760413
  Longitude: 121.0437003
  Status: operational
  Town: Quezon City
  Type: Global
- BGP Intermediate AS: null
  BGP Origin AS: null
  BGP Site Identifier: ''
  Country: IS
  IPv4: true
  IPv6: true
  Identifiers: []
  Instances: 1
  Latitude: 64.133333
  Longitude: -21.933333
  Status: operational
  Town: Reykjavik
  Type: Local
- BGP Intermediate AS: null
  BGP Origin AS: null
  BGP Site Identifier: ''
  Country: US
  IPv4: true
  IPv6: true
  Identifiers: []
  Instances: 1
  Latitude: 37.5407246
  Longitude: -77.4360481
  Status: operational
  Town: Richmond
  Type: Local
- BGP Intermediate AS: null
  BGP Origin AS: null
  BGP Site Identifier: ''
  Country: LV
  IPv4: true
  IPv6: true
  Identifiers: []
  Instances: 1
  Latitude: 56.9496487
  Longitude: 24.1051864
  Status: operational
  Town: Riga
  Type: Local
- BGP Intermediate AS: null
  BGP Origin AS: null
  BGP Site Identifier: ''
  Country: BR
  IPv4: true
  IPv6: true
  Identifiers: []
  Instances: 1
  Latitude: -22.9068467
  Longitude: -43.1728965
  Status: operational
  Town: Rio de Janeiro
  Type: Global
- BGP Intermediate AS: null
  BGP Origin AS: null
  BGP Site Identifier: ''
  Country: BR
  IPv4: true
  IPv6: true
  Identifiers: []
  Instances: 1
  Latitude: -22.9068467
  Longitude: -43.1728965
  Status: operational
  Town: Rio de Janeiro
  Type: Global
- BGP Intermediate AS: null
  BGP Origin AS: null
  BGP Site Identifier: ''
  Country: IT
  IPv4: true
  IPv6: true
  Identifiers: []
  Instances: 1
  Latitude: 41.9027835
  Longitude: 12.4963655
  Status: operational
  Town: Rome
  Type: Local
- BGP Intermediate AS: null
  BGP Origin AS: null
  BGP Site Identifier: ''
  Country: RU
  IPv4: true
  IPv6: true
  Identifiers: []
  Instances: 1
  Latitude: 59.9342802
  Longitude: 30.3350986
  Status: operational
  Town: Saint Petersburg
  Type: Global
- BGP Intermediate AS: null
  BGP Origin AS: null
  BGP Site Identifier: ''
  Country: US
  IPv4: true
  IPv6: true
  Identifiers: []
  Instances: 1
  Latitude: 37.7749295
  Longitude: -122.4194155
  Status: operational
  Town: San Francisco
  Type: Local
- BGP Intermediate AS: null
  BGP Origin AS: null
  BGP Site Identifier: ''
  Country: US
  IPv4: true
  IPv6: true
  Identifiers: []
  Instances: 1
  Latitude: 37.3382082
  Longitude: -121.8863286
  Status: operational
  Town: San Jose
  Type: Global
- BGP Intermediate AS: null
  BGP Origin AS: null
  BGP Site Identifier: ''
  Country: US
  IPv4: true
  IPv6: true
  Identifiers: []
  Instances: 1
  Latitude: 37.3382082
  Longitude: -121.8863286
  Status: operational
  Town: San Jose
  Type: Local
- BGP Intermediate AS: null
  BGP Origin AS: null
  BGP Site Identifier: ''
  Country: US
  IPv4: true
  IPv6: true
  Identifiers: []
  Instances: 1
  Latitude: 37.3382082
  Longitude: -121.8863286
  Status: operational
  Town: San Jose
  Type: Global
- BGP Intermediate AS: null
  BGP Origin AS: null
  BGP Site Identifier: ''
  Country: US
  IPv4: true
  IPv6: true
  Identifiers: []
  Instances: 1
  Latitude: 37.3382082
  Longitude: -121.8863286
  Status: operational
  Town: San Jose
  Type: Global
- BGP Intermediate AS: null
  BGP Origin AS: null
  BGP Site Identifier: ''
  Country: US
  IPv4: true
  IPv6: true
  Identifiers: []
  Instances: 1
  Latitude: 37.3382082
  Longitude: -121.8863286
  Status: operational
  Town: San Jose
  Type: Global
- BGP Intermediate AS: null
  BGP Origin AS: null
  BGP Site Identifier: ''
  Country: CR
  IPv4: true
  IPv6: false
  Identifiers: []
  Instances: 1
  Latitude: 9.9325427
  Longitude: -84.0795782
  Status: operational
  Town: San José
  Type: Global
- BGP Intermediate AS: null
  BGP Origin AS: null
  BGP Site Identifier: ''
  Country: PR
  IPv4: true
  IPv6: false
  Identifiers: []
  Instances: 1
  Latitude: 18.4663338
  Longitude: -66.1057217
  Status: operational
  Town: San Juan
  Type: Global
- BGP Intermediate AS: null
  BGP Origin AS: null
  BGP Site Identifier: ''
  Country: CL
  IPv4: true
  IPv6: true
  Identifiers: []
  Instances: 1
  Latitude: -33.4488897
  Longitude: -70.6692655
  Status: operational
  Town: Santiago
  Type: Local
- BGP Intermediate AS: null
  BGP Origin AS: null
  BGP Site Identifier: ''
  Country: BR
  IPv4: true
  IPv6: true
  Identifiers: []
  Instances: 1
  Latitude: -23.5506507
  Longitude: -46.6333824
  Status: operational
  Town: Sao Paulo
  Type: Local
- BGP Intermediate AS: null
  BGP Origin AS: null
  BGP Site Identifier: ''
  Country: BR
  IPv4: true
  IPv6: true
  Identifiers: []
  Instances: 1
  Latitude: -23.5506507
  Longitude: -46.6333824
  Status: operational
  Town: Sao Paulo
  Type: Local
- BGP Intermediate AS: null
  BGP Origin AS: null
  BGP Site Identifier: ''
  Country: US
  IPv4: true
  IPv6: true
  Identifiers: []
  Instances: 1
  Latitude: 47.6062095
  Longitude: -122.3320708
  Status: operational
  Town: Seattle
  Type: Local
- BGP Intermediate AS: null
  BGP Origin AS: null
  BGP Site Identifier: ''
  Country: US
  IPv4: true
  IPv6: true
  Identifiers: []
  Instances: 1
  Latitude: 47.6062095
  Longitude: -122.3320708
  Status: operational
  Town: Seattle
  Type: Local
- BGP Intermediate AS: null
  BGP Origin AS: null
  BGP Site Identifier: ''
  Country: US
  IPv4: true
  IPv6: true
  Identifiers: []
  Instances: 1
  Latitude: 47.6062095
  Longitude: -122.3320708
  Status: operational
  Town: Seattle
  Type: Global
- BGP Intermediate AS: null
  BGP Origin AS: null
  BGP Site Identifier: ''
  Country: US
  IPv4: true
  IPv6: true
  Identifiers: []
  Instances: 1
  Latitude: 47.6062095
  Longitude: -122.3320708
  Status: operational
  Town: Seattle
  Type: Global
- BGP Intermediate AS: null
  BGP Origin AS: null
  BGP Site Identifier: ''
  Country: KR
  IPv4: true
  IPv6: false
  Identifiers: []
  Instances: 1
  Latitude: 37.566535
  Longitude: 126.9779692
  Status: operational
  Town: Seoul
  Type: Global
- BGP Intermediate AS: null
  BGP Origin AS: null
  BGP Site Identifier: ''
  Country: KR
  IPv4: true
  IPv6: true
  Identifiers: []
  Instances: 1
  Latitude: 37.566535
  Longitude: 126.9779692
  Status: operational
  Town: Seoul
  Type: Local
- BGP Intermediate AS: null
  BGP Origin AS: null
  BGP Site Identifier: ''
  Country: CN
  IPv4: true
  IPv6: true
  Identifiers: []
  Instances: 1
  Latitude: 31.2322758
  Longitude: 121.4692071
  Status: operational
  Town: Shanghai
  Type: Global
- BGP Intermediate AS: null
  BGP Origin AS: null
  BGP Site Identifier: ''
  Country: SG
  IPv4: true
  IPv6: true
  Identifiers: []
  Instances: 1
  Latitude: 1.2800945
  Longitude: 103.8509491
  Status: operational
  Town: Singapore
  Type: Local
- BGP Intermediate AS: null
  BGP Origin AS: null
  BGP Site Identifier: ''
  Country: SG
  IPv4: true
  IPv6: true
  Identifiers: []
  Instances: 1
  Latitude: 1.2800945
  Longitude: 103.8509491
  Status: operational
  Town: Singapore
  Type: Local
- BGP Intermediate AS: null
  BGP Origin AS: null
  BGP Site Identifier: ''
  Country: SG
  IPv4: true
  IPv6: true
  Identifiers: []
  Instances: 1
  Latitude: 1.2800945
  Longitude: 103.8509491
  Status: operational
  Town: Singapore
  Type: Global
- BGP Intermediate AS: null
  BGP Origin AS: null
  BGP Site Identifier: ''
  Country: SG
  IPv4: true
  IPv6: true
  Identifiers: []
  Instances: 1
  Latitude: 1.2800945
  Longitude: 103.8509491
  Status: operational
  Town: Singapore
  Type: Global
- BGP Intermediate AS: null
  BGP Origin AS: null
  BGP Site Identifier: ''
  Country: BG
  IPv4: true
  IPv6: true
  Identifiers: []
  Instances: 1
  Latitude: 42.6977082
  Longitude: 23.3218675
  Status: operational
  Town: Sofia
  Type: Local
- BGP Intermediate AS: null
  BGP Origin AS: null
  BGP Site Identifier: ''
  Country: US
  IPv4: true
  IPv6: true
  Identifiers: []
  Instances: 1
  Latitude: 37.0965278
  Longitude: -113.5684164
  Status: operational
  Town: St. George
  Type: Local
- BGP Intermediate AS: null
  BGP Origin AS: null
  BGP Site Identifier: ''
  Country: SE
  IPv4: true
  IPv6: true
  Identifiers: []
  Instances: 1
  Latitude: 59.3293235
  Longitude: 18.0685808
  Status: operational
  Town: Stockholm
  Type: Global
- BGP Intermediate AS: null
  BGP Origin AS: null
  BGP Site Identifier: ''
  Country: SE
  IPv4: true
  IPv6: true
  Identifiers: []
  Instances: 1
  Latitude: 59.3293235
  Longitude: 18.0685808
  Status: operational
  Town: Stockholm
  Type: Global
- BGP Intermediate AS: null
  BGP Origin AS: null
  BGP Site Identifier: ''
  Country: SE
  IPv4: true
  IPv6: true
  Identifiers: []
  Instances: 1
  Latitude: 59.3293235
  Longitude: 18.0685808
  Status: operational
  Town: Stockholm
  Type: Local
- BGP Intermediate AS: null
  BGP Origin AS: null
  BGP Site Identifier: ''
  Country: AU
  IPv4: true
  IPv6: true
  Identifiers: []
  Instances: 1
  Latitude: -33.8674869
  Longitude: 151.2069902
  Status: operational
  Town: Sydney
  Type: Local
- BGP Intermediate AS: null
  BGP Origin AS: null
  BGP Site Identifier: ''
  Country: AU
  IPv4: true
  IPv6: true
  Identifiers: []
  Instances: 1
  Latitude: -33.8674869
  Longitude: 151.2069902
  Status: operational
  Town: Sydney
  Type: Global
- BGP Intermediate AS: null
  BGP Origin AS: null
  BGP Site Identifier: ''
  Country: US
  IPv4: true
  IPv6: true
  Identifiers: []
  Instances: 1
  Latitude: 27.950575
  Longitude: -82.4571776
  Status: operational
  Town: Tampa
  Type: Local
- BGP Intermediate AS: null
  BGP Origin AS: null
  BGP Site Identifier: ''
  Country: IL
  IPv4: true
  IPv6: true
  Identifiers: []
  Instances: 1
  Latitude: 32.0852999
  Longitude: 34.7817676
  Status: operational
  Town: Tel Aviv
  Type: Local
- BGP Intermediate AS: null
  BGP Origin AS: null
  BGP Site Identifier: ''
  Country: JP
  IPv4: true
  IPv6: true
  Identifiers: []
  Instances: 1
  Latitude: 35.6894875
  Longitude: 139.6917064
  Status: operational
  Town: Tokyo
  Type: Global
- BGP Intermediate AS: null
  BGP Origin AS: null
  BGP Site Identifier: ''
  Country: JP
  IPv4: true
  IPv6: true
  Identifiers: []
  Instances: 1
  Latitude: 35.6894875
  Longitude: 139.6917064
  Status: operational
  Town: Tokyo
  Type: Local
- BGP Intermediate AS: null
  BGP Origin AS: null
  BGP Site Identifier: ''
  Country: JP
  IPv4: true
  IPv6: true
  Identifiers: []
  Instances: 1
  Latitude: 35.6894875
  Longitude: 139.6917064
  Status: operational
  Town: Tokyo
  Type: Local
- BGP Intermediate AS: null
  BGP Origin AS: null
  BGP Site Identifier: ''
  Country: JP
  IPv4: true
  IPv6: true
  Identifiers: []
  Instances: 1
  Latitude: 35.6894875
  Longitude: 139.6917064
  Status: operational
  Town: Tokyo
  Type: Global
- BGP Intermediate AS: null
  BGP Origin AS: null
  BGP Site Identifier: ''
  Country: IT
  IPv4: true
  IPv6: true
  Identifiers: []
  Instances: 1
  Latitude: 45.070312
  Longitude: 7.6868565
  Status: operational
  Town: Turin
  Type: Local
- BGP Intermediate AS: null
  BGP Origin AS: null
  BGP Site Identifier: ''
  Country: CA
  IPv4: true
  IPv6: true
  Identifiers: []
  Instances: 1
  Latitude: 49.2827291
  Longitude: -123.1207375
  Status: operational
  Town: Vancouver
  Type: Global
- BGP Intermediate AS: null
  BGP Origin AS: null
  BGP Site Identifier: ''
  Country: AT
  IPv4: true
  IPv6: true
  Identifiers: []
  Instances: 1
  Latitude: 48.2081743
  Longitude: 16.3738189
  Status: operational
  Town: Vienna
  Type: Global
- BGP Intermediate AS: null
  BGP Origin AS: null
  BGP Site Identifier: ''
  Country: LT
  IPv4: true
  IPv6: true
  Identifiers: []
  Instances: 1
  Latitude: 54.6871555
  Longitude: 25.2796514
  Status: operational
  Town: Vilnius
  Type: Local
- BGP Intermediate AS: null
  BGP Origin AS: null
  BGP Site Identifier: ''
  Country: PL
  IPv4: true
  IPv6: false
  Identifiers: []
  Instances: 1
  Latitude: 52.2296756
  Longitude: 21.0122287
  Status: operational
  Town: Warsaw
  Type: Global
- BGP Intermediate AS: null
  BGP Origin AS: null
  BGP Site Identifier: ''
  Country: US
  IPv4: true
  IPv6: true
  Identifiers: []
  Instances: 1
  Latitude: 38.8950368
  Longitude: -77.0365427
  Status: operational
  Town: Washington DC
  Type: Global
- BGP Intermediate AS: null
  BGP Origin AS: null
  BGP Site Identifier: ''
  Country: US
  IPv4: true
  IPv6: true
  Identifiers: []
  Instances: 1
  Latitude: 38.8950368
  Longitude: -77.0365427
  Status: operational
  Town: Washington DC
  Type: Global
- BGP Intermediate AS: null
  BGP Origin AS: null
  BGP Site Identifier: ''
  Country: CA
  IPv4: true
  IPv6: false
  Identifiers: []
  Instances: 1
  Latitude: 38.5471327
  Longitude: -122.8163802
  Status: operational
  Town: Windsor
  Type: Global
- BGP Intermediate AS: null
  BGP Origin AS: null
  BGP Site Identifier: ''
  Country: CA
  IPv4: true
  IPv6: true
  Identifiers: []
  Instances: 1
  Latitude: 49.895136
  Longitude: -97.1383744
  Status: operational
  Town: Winnipeg
  Type: Local
- BGP Intermediate AS: null
  BGP Origin AS: null
  BGP Site Identifier: ''
  Country: HR
  IPv4: true
  IPv6: true
  Identifiers: []
  Instances: 1
  Latitude: 45.8150108
  Longitude: 15.981919
  Status: operational
  Town: Zagreb
  Type: Local
- BGP Intermediate AS: null
  BGP Origin AS: null
  BGP Site Identifier: ''
  Country: CH
  IPv4: true
  IPv6: true
  Identifiers: []
  Instances: 1
  Latitude: 47.3768866
  Longitude: 8.541694
  Status: operational
  Town: Zurich
  Type: Local
Statistics: https://j.root-servers.org/metrics/index.html
