ASN: '3557'
Contact Email: f-root@isc.org
Homepage: http://f.root-servers.org/
IPv4: 192.5.5.241
IPv6: 2001:500:2f::f
Identifier Naming Convention: ''
Instances:
- Country: NL
  IPv4: 'Yes'
  IPv6: 'Yes'
  Latitude: '52.3702157'
  Longitude: '4.8951679'
  Sites: 1
  Town: Amsterdam
  Type: Local
- Country: US
  IPv4: 'Yes'
  IPv6: 'Yes'
  Latitude: '33.7489954'
  Longitude: '-84.3879824'
  Sites: 1
  State: GA
  Town: Atlanta
  Type: Global
- Country: NZ
  IPv4: 'Yes'
  IPv6: 'Yes'
  Latitude: '-36.8484597'
  Longitude: '174.7633315'
  Sites: 1
  Town: Auckland
  Type: Local
- Country: ES
  IPv4: 'Yes'
  IPv6: 'Yes'
  Latitude: '41.3850639'
  Longitude: '2.1734035'
  Sites: 1
  Town: Barcelona
  Type: Global
- Country: CN
  IPv4: 'Yes'
  IPv6: 'Yes'
  Latitude: '39.90403'
  Longitude: '116.407526'
  Sites: 1
  Town: Beijing
  Type: Global
- Country: AU
  IPv4: 'Yes'
  IPv6: 'Yes'
  Latitude: '-27.4710107'
  Longitude: '153.0234489'
  Sites: 1
  Town: Brisbane
  Type: Global
- Country: AR
  IPv4: 'Yes'
  IPv6: 'No'
  Latitude: '-34.6037232'
  Longitude: '-58.3815931'
  Sites: 1
  Town: Buenos Aires
  Type: Global
- Country: EG
  IPv4: 'Yes'
  IPv6: 'No'
  Latitude: '30.0444196'
  Longitude: '31.2357116'
  Sites: 1
  Town: Cairo
  Type: Global
- Country: VE
  IPv4: 'Yes'
  IPv6: 'Yes'
  Latitude: '10.491016'
  Longitude: '-66.902061'
  Sites: 1
  Town: Caracas
  Type: Global
- Country: IN
  IPv4: 'Yes'
  IPv6: 'Yes'
  Latitude: '13.0524139'
  Longitude: '80.2508246'
  Sites: 1
  Town: Chennai
  Type: Global
- Country: US
  IPv4: 'Yes'
  IPv6: 'Yes'
  Latitude: '41.8781136'
  Longitude: '-87.6297982'
  Sites: 1
  State: IL
  Town: Chicago
  Type: Global
- Country: TZ
  IPv4: 'Yes'
  IPv6: 'Yes'
  Latitude: '-6.822921'
  Longitude: '39.269661'
  Sites: 1
  Town: Dar es Salaam
  Type: Global
- Country: BD
  IPv4: 'Yes'
  IPv6: 'Yes'
  Latitude: '23.709921'
  Longitude: '90.407143'
  Sites: 1
  Town: Dhaka
  Type: Global
- Country: AE
  IPv4: 'Yes'
  IPv6: 'No'
  Latitude: '25.271139'
  Longitude: '55.307485'
  Sites: 1
  Town: Dubai
  Type: Global
- Country: DE
  IPv4: 'Yes'
  IPv6: 'Yes'
  Latitude: '50.1109221'
  Longitude: '8.6821267'
  Sites: 1
  Town: Frankfurt
  Type: Global
- Country: HK
  IPv4: 'Yes'
  IPv6: 'Yes'
  Latitude: '22.396428'
  Longitude: '114.109497'
  Sites: 1
  Town: Hong Kong
  Type: Global
- Country: ID
  IPv4: 'Yes'
  IPv6: 'Yes'
  Latitude: '-6.211544'
  Longitude: '106.845172'
  Sites: 1
  Town: Jakarta
  Type: Global
- Country: ZA
  IPv4: 'Yes'
  IPv6: 'Yes'
  Latitude: '-26.2041028'
  Longitude: '28.0473051'
  Sites: 1
  Town: Johannesburg
  Type: Global
- Country: PK
  IPv4: 'Yes'
  IPv6: 'No'
  Latitude: '24.893379'
  Longitude: '67.0280609'
  Sites: 1
  Town: Karachi
  Type: Global
- Country: MY
  IPv4: 'Yes'
  IPv6: 'Yes'
  Latitude: '2.745580'
  Longitude: '101.709999'
  Sites: 1
  Town: Kuala Lumpur
  Type: Global
- Country: UA
  IPv4: 'Yes'
  IPv6: 'Yes'
  Latitude: '50.4501'
  Longitude: '30.5234'
  Sites: 1
  Town: Kyiv
  Type: Global
- Country: NG
  IPv4: 'Yes'
  IPv6: 'No'
  Latitude: '6.441158'
  Longitude: '3.417977'
  Sites: 1
  Town: Lagos
  Type: Global
- Country: PT
  IPv4: 'Yes'
  IPv6: 'Yes'
  Latitude: '38.7252993'
  Longitude: '-9.1500364'
  Sites: 1
  Town: Lisbon
  Type: Global
- Country: UK
  IPv4: 'Yes'
  IPv6: 'Yes'
  Latitude: '51.5112139'
  Longitude: '-0.1198244'
  Sites: 2
  Town: London
  Type: Global
- Country: US
  IPv4: 'Yes'
  IPv6: 'Yes'
  Latitude: '34.0522342'
  Longitude: '-118.2436849'
  Sites: 1
  State: CA
  Town: Los Angeles
  Type: Global
- Country: Angola
  IPv4: 'Yes'
  IPv6: 'No'
  Latitude: '-8.814943'
  Longitude: '13.230847'
  Sites: 1
  Town: Luanda
  Type: Local
- Country: ES
  IPv4: 'Yes'
  IPv6: 'No'
  Latitude: '40.4167754'
  Longitude: '-3.7037902'
  Sites: 1
  Town: Madrid
  Type: Global
- Country: MX
  IPv4: 'Yes'
  IPv6: 'No'
  Latitude: '25.6732109'
  Longitude: '-100.309201'
  Sites: 1
  Town: Monterrey
  Type: Global
- Country: RU
  IPv4: 'Yes'
  IPv6: 'Yes'
  Latitude: '55.755826'
  Longitude: '37.6173'
  Sites: 1
  Town: Moscow
  Type: Global
- Country: KE
  IPv4: 'Yes'
  IPv6: 'No'
  Latitude: '-1.2920659'
  Longitude: '36.8219462'
  Sites: 1
  Town: Nairobi
  Type: Global
- Country: US
  IPv4: 'Yes'
  IPv6: 'Yes'
  Latitude: '40.7143528'
  Longitude: '-74.0059731'
  Sites: 1
  State: NY
  Town: New York
  Type: Global
- Country: JP
  IPv4: 'Yes'
  IPv6: 'Yes'
  Latitude: '34.6937378'
  Longitude: '135.5021651'
  Sites: 1
  Town: Osaka
  Type: Global
- Country: 'NO'
  IPv4: 'Yes'
  IPv6: 'Yes'
  Latitude: '59.9138688'
  Longitude: '10.7522454'
  Sites: 1
  Town: Oslo
  Type: Global
- Country: Canada
  IPv4: 'Yes'
  IPv6: 'No'
  Latitude: '45.4215296'
  Longitude: '-75.6971931'
  Sites: 1
  Town: Ottawa
  Type: Global
- Country: US
  IPv4: 'Yes'
  IPv6: 'Yes'
  Latitude: '37.4418834'
  Longitude: '-122.1430195'
  Sites: 1
  State: CA
  Town: Palo Alto
  Type: Global
- Country: PA
  IPv4: 'Yes'
  IPv6: 'No'
  Latitude: '8.9942689'
  Longitude: '-79.518792'
  Sites: 1
  Town: Panama City
  Type: Global
- Country: FR
  IPv4: 'Yes'
  IPv6: 'Yes'
  Latitude: '48.856614'
  Longitude: '2.3522219'
  Sites: 1
  Town: Paris
  Type: Global
- Country: KH
  IPv4: 'Yes'
  IPv6: 'Yes'
  Latitude: '11.558831'
  Longitude: '104.917445'
  Sites: 1
  Town: Phnom Penh
  Type: Global
- Country: ME
  IPv4: 'Yes'
  IPv6: 'No'
  Latitude: '42.442575'
  Longitude: '19.268646'
  Sites: 1
  Town: Podgorica
  Type: Global
- Country: HT
  IPv4: 'Yes'
  IPv6: 'No'
  Latitude: '18.539269'
  Longitude: '-72.336408'
  Sites: 1
  Town: Port au Prince
  Type: Global
- Country: CZ
  IPv4: 'Yes'
  IPv6: 'Yes'
  Latitude: '50.0755381'
  Longitude: '14.4378005'
  Sites: 1
  Town: Prague
  Type: Global
- Country: EC
  IPv4: 'Yes'
  IPv6: 'Yes'
  Latitude: '-0.2170967'
  Longitude: '-78.5169882'
  Sites: 1
  Town: Quito
  Type: Global
- Country: IT
  IPv4: 'Yes'
  IPv6: 'No'
  Latitude: '41.8929163'
  Longitude: '12.4825199'
  Sites: 1
  Town: Rome
  Type: Global
- Country: CR
  IPv4: 'Yes'
  IPv6: 'No'
  Latitude: '9.927128'
  Longitude: '-84.082012'
  Sites: 1
  Town: San Jose
  Type: Global
- Country: US
  IPv4: 'Yes'
  IPv6: 'Yes'
  Latitude: '37.3393857'
  Longitude: '-121.8949555'
  Sites: 1
  State: CA
  Town: San Jose
  Type: Global
- Country: CL
  IPv4: 'Yes'
  IPv6: 'Yes'
  Latitude: '-33.4691199'
  Longitude: '-70.641997'
  Sites: 1
  Town: Santiago de Chile
  Type: Global
- Country: BR
  IPv4: 'Yes'
  IPv6: 'Yes'
  Latitude: '-23.5489433'
  Longitude: '-46.6388182'
  Sites: 1
  Town: Sao Paulo
  Type: Global
- Country: KR
  IPv4: 'Yes'
  IPv6: 'Yes'
  Latitude: '37.566535'
  Longitude: '126.9779692'
  Sites: 1
  Town: Seoul
  Type: Global
- Country: SG
  IPv4: 'Yes'
  IPv6: 'Yes'
  Latitude: '1.2800945'
  Longitude: '103.8509491'
  Sites: 1
  Town: Singapore
  Type: Global
- Country: AN
  IPv4: 'Yes'
  IPv6: 'Yes'
  Latitude: '18.016667'
  Longitude: '-63.05'
  Sites: 1
  Town: St. Maarten
  Type: Global
- Country: Fiji
  IPv4: 'Yes'
  IPv6: 'No'
  Latitude: '-18.1416'
  Longitude: '178.4419'
  Sites: 1
  Town: Suva
  Type: Global
- Country: TW
  IPv4: 'Yes'
  IPv6: 'No'
  Latitude: '25.091075'
  Longitude: '121.5598345'
  Sites: 1
  Town: Taipei
  Type: Global
- Country: IL
  IPv4: 'Yes'
  IPv6: 'No'
  Latitude: '32.066158'
  Longitude: '34.777819'
  Sites: 1
  Town: Tel Aviv
  Type: Global
- Country: IT
  IPv4: 'Yes'
  IPv6: 'Yes'
  Latitude: '45.070982'
  Longitude: '7.685676'
  Sites: 1
  Town: Torino
  Type: Global
- Country: CA
  IPv4: 'Yes'
  IPv6: 'Yes'
  Latitude: '43.653226'
  Longitude: '-79.3831843'
  Sites: 1
  Town: Toronto
  Type: Global
- Country: MN
  IPv4: 'Yes'
  IPv6: 'No'
  Latitude: '47.921378'
  Longitude: '106.90554'
  Sites: 1
  Town: Ulan Bator
  Type: Global
- Country: PL
  IPv4: 'Yes'
  IPv6: 'Yes'
  Latitude: '52.2296756'
  Longitude: '21.0122287'
  Sites: 1
  Town: Warsaw
  Type: Global
Operator: Internet Systems Consortium, Inc.
Peering Policy: http://www.isc.org/f-root/network-peering/
RSSAC: ''
Statistics: ''
