ASN: '26415'
Contact Email: rootdns@verisign.com
Homepage: http://j.root-servers.org/
IPv4: 192.58.128.30
IPv6: 2001:503:c27::2:30
Identifier Naming Convention: ''
Instances:
- Country: US
  IPv4: 'Yes'
  IPv6: 'Yes'
  Latitude: '39.0437567'
  Longitude: '-77.4874416'
  Sites: 5
  State: VA
  Town: Ashburn
  Type: Global
- Country: US
  IPv4: 'Yes'
  IPv6: 'Yes'
  Latitude: '33.7489954'
  Longitude: '-84.3879824'
  Sites: 3
  State: Georgia
  Town: Atlanta
  Type: Global
- Country: SK
  IPv4: 'Yes'
  IPv6: 'Yes'
  Latitude: '48.1458923'
  Longitude: '17.1071373'
  Sites: 1
  Town: Bratislava
  Type: Local
- Country: ZA
  IPv4: 'Yes'
  IPv6: 'Yes'
  Latitude: '-26.2041028'
  Longitude: '28.0473051'
  Sites: 1
  Town: Johannesburg
  Type: Local
- Country: UA
  IPv4: 'Yes'
  IPv6: 'Yes'
  Latitude: '50.4501'
  Longitude: '30.5234'
  Sites: 1
  Town: Kiev
  Type: Local
- Country: US
  IPv4: 'Yes'
  IPv6: 'Yes'
  Latitude: '32.3668052'
  Longitude: '-86.2999689'
  Sites: 1
  State: AL
  Town: Montgomery
  Type: Local
- Country: KE
  IPv4: 'Yes'
  IPv6: 'Yes'
  Latitude: '-1.2920659'
  Longitude: '36.8219462'
  Sites: 1
  Town: Nairobi
  Type: Global
- Country: 'NO'
  IPv4: 'Yes'
  IPv6: 'Yes'
  Latitude: '59.9138688'
  Longitude: '10.7522454'
  Sites: 1
  Town: Oslo
  Type: Local
- Country: FR
  IPv4: 'Yes'
  IPv6: 'Yes'
  Latitude: '48.856614'
  Longitude: '2.3522219'
  Sites: 1
  Town: Paris
  Type: Global
- Country: AU
  IPv4: 'Yes'
  IPv6: 'Yes'
  Latitude: '-31.9535132'
  Longitude: '115.8570471'
  Sites: 1
  Town: Perth
  Type: Local
- Country: BR
  IPv4: 'Yes'
  IPv6: 'Yes'
  Latitude: '-21.9689374'
  Longitude: '-47.4098328'
  Sites: 1
  Town: Pirassununga
  Type: Global
- Country: BR
  IPv4: 'Yes'
  IPv6: 'Yes'
  Latitude: '-22.9068467'
  Longitude: '-43.1728965'
  Sites: 1
  Town: Rio de Janeiro
  Type: Global
- Country: US
  IPv4: 'Yes'
  IPv6: 'Yes'
  Latitude: '37.7749295'
  Longitude: '-122.4194155'
  Sites: 2
  State: CA
  Town: San Francisco
  Type: Global
- Country: CL
  IPv4: 'Yes'
  IPv6: 'Yes'
  Latitude: '-33.4488897'
  Longitude: '-70.6692655'
  Sites: 1
  Town: Santiago
  Type: Local
- Country: HR
  IPv4: 'Yes'
  IPv6: 'Yes'
  Latitude: '45.8150108'
  Longitude: '15.981919'
  Sites: 1
  Town: Zagreb
  Type: Local
Operator: Verisign, Inc.
Peering Policy: ''
RSSAC: http://j.root-servers.org/metrics/index.html
Statistics: http://j.root-servers.org/metrics/index.html
