ASN: 10886
Contact Email: ''
Homepage: http://www.droot.maxgigapop.net/
IPv4: 199.7.91.13
IPv6: 2001:500:2d::d
Identifier Naming Convention: ''
Operator: University of Maryland
Peering Policy: ''
RSSAC: http://www.droot.maxgigapop.net/rssac002
Sites:
- Country: CI
  IPv4: true
  IPv6: true
  Identifiers: []
  Instances: 1
  Latitude: 5.3599517
  Longitude: -4.0082563
  Town: Abidjan
  Type: Local
- Country: GH
  IPv4: true
  IPv6: true
  Identifiers: []
  Instances: 1
  Latitude: 5.6037168
  Longitude: -0.1869644
  Town: Accra
  Type: Local
- Country: NL
  IPv4: true
  IPv6: true
  Identifiers: []
  Instances: 1
  Latitude: 52.3702157
  Longitude: 4.8951679
  Town: Amsterdam
  Type: Global
- Country: JO
  IPv4: true
  IPv6: true
  Identifiers: []
  Instances: 1
  Latitude: 29.526702
  Longitude: 35.007822
  Town: Aqaba
  Type: Local
- Country: CL
  IPv4: true
  IPv6: true
  Identifiers: []
  Instances: 1
  Latitude: -18.4782534
  Longitude: -70.3125988
  Town: Arica
  Type: Local
- Country: TZ
  IPv4: true
  IPv6: true
  Identifiers: []
  Instances: 1
  Latitude: -3.3869254
  Longitude: 36.6829927
  Town: Arusha
  Type: Local
- Country: US
  IPv4: true
  IPv6: true
  Identifiers: []
  Instances: 1
  Latitude: 38.9516235
  Longitude: -77.4480814
  Town: Ashburn
  Type: Global
- Country: PY
  IPv4: true
  IPv6: true
  Identifiers: []
  Instances: 1
  Latitude: -25.2637399
  Longitude: -57.575926
  Town: Asuncion
  Type: Local
- Country: GR
  IPv4: true
  IPv6: true
  Identifiers: []
  Instances: 1
  Latitude: 37.983917
  Longitude: 23.7293599
  Town: Athens
  Type: Local
- Country: US
  IPv4: true
  IPv6: true
  Identifiers: []
  Instances: 1
  Latitude: 33.7489954
  Longitude: -84.3879824
  Town: Atlanta
  Type: Global
- Country: NZ
  IPv4: true
  IPv6: true
  Identifiers: []
  Instances: 1
  Latitude: -36.8484597
  Longitude: 174.7633315
  Town: Auckland
  Type: Local
- Country: NZ
  IPv4: true
  IPv6: true
  Identifiers: []
  Instances: 1
  Latitude: -36.8484597
  Longitude: 174.7633315
  Town: Auckland
  Type: Local
- Country: US
  IPv4: true
  IPv6: true
  Identifiers: []
  Instances: 1
  Latitude: 39.2903848
  Longitude: -76.6121893
  Town: Baltimore
  Type: Local
- Country: US
  IPv4: true
  IPv6: true
  Identifiers: []
  Instances: 1
  Latitude: 39.2908816
  Longitude: -76.610759
  Town: Baltimore
  Type: Local
- Country: ML
  IPv4: true
  IPv6: true
  Identifiers: []
  Instances: 1
  Latitude: 12.649319
  Longitude: -8.000337
  Town: Bamako
  Type: Local
- Country: TH
  IPv4: true
  IPv6: true
  Identifiers: []
  Instances: 1
  Latitude: 13.7563309
  Longitude: 100.5017651
  Town: Bangkok
  Type: Local
- Country: US
  IPv4: true
  IPv6: true
  Identifiers: []
  Instances: 1
  Latitude: 44.8016128
  Longitude: -68.7712257
  Town: Bangor
  Type: Local
- Country: GM
  IPv4: true
  IPv6: true
  Identifiers: []
  Instances: 1
  Latitude: 13.4548761
  Longitude: -16.5790323
  Town: Banjul
  Type: Local
- Country: ES
  IPv4: true
  IPv6: true
  Identifiers: []
  Instances: 1
  Latitude: 41.3850639
  Longitude: 2.1734035
  Town: Barcelona
  Type: Local
- Country: LB
  IPv4: true
  IPv6: true
  Identifiers: []
  Instances: 2
  Latitude: 33.8886289
  Longitude: 35.4954794
  Town: Beirut
  Type: Local
- Country: RS
  IPv4: true
  IPv6: true
  Identifiers: []
  Instances: 1
  Latitude: 44.786568
  Longitude: 20.4489216
  Town: Belgrade
  Type: Local
- Country: DE
  IPv4: true
  IPv6: true
  Identifiers: []
  Instances: 2
  Latitude: 52.5200066
  Longitude: 13.404954
  Town: Berlin
  Type: Local
- Country: US
  IPv4: true
  IPv6: true
  Identifiers: []
  Instances: 1
  Latitude: 42.5584283
  Longitude: -70.880049
  Town: Beverly
  Type: Local
- Country: MW
  IPv4: true
  IPv6: true
  Identifiers: []
  Instances: 1
  Latitude: -15.786111
  Longitude: 35.005833
  Town: Blantyre
  Type: Local
- Country: US
  IPv4: true
  IPv6: true
  Identifiers: []
  Instances: 1
  Latitude: 42.3584308
  Longitude: -71.0597732
  Town: Boston
  Type: Local
- Country: RO
  IPv4: true
  IPv6: true
  Identifiers: []
  Instances: 1
  Latitude: 44.4267674
  Longitude: 26.1025384
  Town: Bucharest
  Type: Local
- Country: BI
  IPv4: true
  IPv6: true
  Identifiers: []
  Instances: 1
  Latitude: -3.361378
  Longitude: 29.3598782
  Town: Bujumbura
  Type: Local
- Country: US
  IPv4: true
  IPv6: true
  Identifiers: []
  Instances: 1
  Latitude: 34.1808392
  Longitude: -118.3089661
  Town: Burbank
  Type: Global
- Country: CA
  IPv4: true
  IPv6: true
  Identifiers: []
  Instances: 1
  Latitude: 51.0453246
  Longitude: -114.0581012
  Town: Calgary
  Type: Local
- Country: US
  IPv4: true
  IPv6: true
  Identifiers: []
  Instances: 1
  Latitude: 40.7985464
  Longitude: -81.3749508
  Town: Canton, OH
  Type: Local
- Country: ZA
  IPv4: true
  IPv6: true
  Identifiers: []
  Instances: 1
  Latitude: -33.9248685
  Longitude: 18.4240553
  Town: Cape Town
  Type: Local
- Country: MA
  IPv4: true
  IPv6: true
  Identifiers: []
  Instances: 1
  Latitude: 33.5675527
  Longitude: -7.618756606822727
  Town: Casablanca
  Type: Local
- Country: MA
  IPv4: true
  IPv6: true
  Identifiers: []
  Instances: 1
  Latitude: 33.5675527
  Longitude: -7.618756606822727
  Town: Casablanca
  Type: Local
- Country: LC
  IPv4: true
  IPv6: true
  Identifiers: []
  Instances: 1
  Latitude: 14.0101094
  Longitude: -60.9874687
  Town: Castries
  Type: Local
- Country: US
  IPv4: true
  IPv6: true
  Identifiers: []
  Instances: 1
  Latitude: 41.8781136
  Longitude: -87.6297982
  Town: Chicago
  Type: Global
- Country: US
  IPv4: true
  IPv6: true
  Identifiers: []
  Instances: 1
  Latitude: 38.9896967
  Longitude: -76.93776
  Town: College Park
  Type: Global
- Country: LK
  IPv4: true
  IPv6: true
  Identifiers: []
  Instances: 1
  Latitude: 6.9270786
  Longitude: 79.861243
  Town: Colombo
  Type: Local
- Country: US
  IPv4: true
  IPv6: true
  Identifiers: []
  Instances: 1
  Latitude: 39.9622601
  Longitude: -83.0007065
  Town: Columbus
  Type: Local
- Country: BJ
  IPv4: true
  IPv6: true
  Identifiers: []
  Instances: 1
  Latitude: 6.3702928
  Longitude: 2.3912362
  Town: Cotonou
  Type: Local
- Country: SN
  IPv4: true
  IPv6: true
  Identifiers: []
  Instances: 1
  Latitude: 14.716677
  Longitude: -17.4676861
  Town: Dakar
  Type: Local
- Country: US
  IPv4: true
  IPv6: true
  Identifiers: []
  Instances: 2
  Latitude: 32.7766642
  Longitude: -96.7969879
  Town: Dallas
  Type: Global
- Country: TZ
  IPv4: true
  IPv6: true
  Identifiers: []
  Instances: 1
  Latitude: -6.792354
  Longitude: 39.2083284
  Town: Dar es Salaam
  Type: Local
- Country: US
  IPv4: true
  IPv6: true
  Identifiers: []
  Instances: 1
  Latitude: 41.5236437
  Longitude: -90.5776367
  Town: Davenport
  Type: Local
- Country: US
  IPv4: true
  IPv6: true
  Identifiers: []
  Instances: 1
  Latitude: 39.7392358
  Longitude: -104.990251
  Town: Denver
  Type: Local
- Country: US
  IPv4: true
  IPv6: true
  Identifiers: []
  Instances: 1
  Latitude: 42.3315509
  Longitude: -83.0466403
  Town: Detroit
  Type: Local
- Country: BD
  IPv4: true
  IPv6: true
  Identifiers: []
  Instances: 1
  Latitude: 23.810332
  Longitude: 90.4125181
  Town: Dhaka
  Type: Local
- Country: DE
  IPv4: true
  IPv6: true
  Identifiers: []
  Instances: 1
  Latitude: 51.5142273
  Longitude: 7.4652789
  Town: Dortmund
  Type: Local
- Country: CM
  IPv4: true
  IPv6: true
  Identifiers: []
  Instances: 1
  Latitude: 4.0429408
  Longitude: 9.706203
  Town: Douala
  Type: Local
- Country: AE
  IPv4: true
  IPv6: true
  Identifiers: []
  Instances: 1
  Latitude: 25.0476643
  Longitude: 55.1817407
  Town: Dubai
  Type: Local
- Country: IE
  IPv4: true
  IPv6: true
  Identifiers: []
  Instances: 1
  Latitude: 53.3498053
  Longitude: -6.2603097
  Town: Dublin
  Type: Local
- Country: ZA
  IPv4: true
  IPv6: true
  Identifiers: []
  Instances: 1
  Latitude: -29.8586804
  Longitude: 31.0218404
  Town: Durban
  Type: Local
- Country: GB
  IPv4: true
  IPv6: true
  Identifiers: []
  Instances: 1
  Latitude: 55.953252
  Longitude: -3.188267
  Town: Edinburgh
  Type: Local
- Country: TN
  IPv4: true
  IPv6: true
  Identifiers: []
  Instances: 1
  Latitude: 36.1341527
  Longitude: 10.3750554
  Town: Enfidha
  Type: Local
- Country: AT
  IPv4: true
  IPv6: true
  Identifiers: []
  Instances: 1
  Latitude: 47.2375671
  Longitude: 9.5981724
  Town: Feldkirch
  Type: Local
- Country: DE
  IPv4: true
  IPv6: true
  Identifiers: []
  Instances: 2
  Latitude: 50.1109221
  Longitude: 8.6821267
  Town: Frankfurt
  Type: Global
- Country: PS
  IPv4: true
  IPv6: true
  Identifiers: []
  Instances: 1
  Latitude: 31.7721276
  Longitude: 35.2136806
  Town: Gaza
  Type: Local
- Country: CH
  IPv4: true
  IPv6: true
  Identifiers: []
  Instances: 1
  Latitude: 46.2043907
  Longitude: 6.1431577
  Town: Geneva
  Type: Local
- Country: GT
  IPv4: true
  IPv6: true
  Identifiers: []
  Instances: 1
  Latitude: 14.6222328
  Longitude: -90.5185188
  Town: Guatemala City
  Type: Local
- Country: EC
  IPv4: true
  IPv6: true
  Identifiers: []
  Instances: 1
  Latitude: -2.1709979
  Longitude: -79.9223592
  Town: Guayaquil
  Type: Local
- Country: CA
  IPv4: true
  IPv6: true
  Identifiers: []
  Instances: 2
  Latitude: 44.6488625
  Longitude: -63.5753196
  Town: Halifax
  Type: Local
- Country: DE
  IPv4: true
  IPv6: true
  Identifiers: []
  Instances: 1
  Latitude: 53.5437641
  Longitude: 10.0099133
  Town: Hamburg
  Type: Local
- Country: ZW
  IPv4: true
  IPv6: true
  Identifiers: []
  Instances: 1
  Latitude: -17.8251657
  Longitude: 31.03351
  Town: Harare
  Type: Local
- Country: TR
  IPv4: true
  IPv6: true
  Identifiers: []
  Instances: 1
  Latitude: 41.00527
  Longitude: 28.97696
  Town: Istanbul
  Type: Local
- Country: US
  IPv4: true
  IPv6: true
  Identifiers: []
  Instances: 1
  Latitude: 30.3321838
  Longitude: -81.655651
  Town: Jacksonville
  Type: Local
- Country: ID
  IPv4: true
  IPv6: true
  Identifiers: []
  Instances: 1
  Latitude: -6.2087634
  Longitude: 106.845599
  Town: Jakarta
  Type: Local
- Country: ZA
  IPv4: true
  IPv6: true
  Identifiers: []
  Instances: 1
  Latitude: -26.2041028
  Longitude: 28.0473051
  Town: Johannesburg
  Type: Local
- Country: MY
  IPv4: true
  IPv6: true
  Identifiers: []
  Instances: 1
  Latitude: 1.492659
  Longitude: 103.7413591
  Town: Johore Bahru
  Type: Local
- Country: AF
  IPv4: true
  IPv6: true
  Identifiers: []
  Instances: 1
  Latitude: 34.5260109
  Longitude: 69.1776838
  Town: Kabul
  Type: Local
- Country: UG
  IPv4: true
  IPv6: true
  Identifiers: []
  Instances: 1
  Latitude: 0.3475964
  Longitude: 32.5825197
  Town: Kampala
  Type: Local
- Country: US
  IPv4: true
  IPv6: true
  Identifiers: []
  Instances: 1
  Latitude: 39.0997265
  Longitude: -94.5785667
  Town: Kansas City
  Type: Local
- Country: NP
  IPv4: true
  IPv6: true
  Identifiers: []
  Instances: 1
  Latitude: 27.7
  Longitude: 85.3333333
  Town: Kathmandu
  Type: Local
- Country: SD
  IPv4: true
  IPv6: true
  Identifiers: []
  Instances: 1
  Latitude: 15.5006544
  Longitude: 32.5598994
  Town: Khartoum
  Type: Local
- Country: UA
  IPv4: true
  IPv6: true
  Identifiers: []
  Instances: 1
  Latitude: 50.4501
  Longitude: 30.5234
  Town: Kiev
  Type: Local
- Country: RW
  IPv4: true
  IPv6: true
  Identifiers: []
  Instances: 1
  Latitude: -1.9578755
  Longitude: 30.112735
  Town: Kigali City
  Type: Local
- Country: JM
  IPv4: true
  IPv6: true
  Identifiers: []
  Instances: 1
  Latitude: 17.983333
  Longitude: -76.8
  Town: Kingston
  Type: Local
- Country: CG
  IPv4: true
  IPv6: true
  Identifiers: []
  Instances: 1
  Latitude: -4.4419311
  Longitude: 15.2662931
  Town: Kinshasa
  Type: Local
- Country: AT
  IPv4: true
  IPv6: true
  Identifiers: []
  Instances: 1
  Latitude: 46.62794
  Longitude: 14.30899
  Town: Klagenfurt
  Type: Local
- Country: MY
  IPv4: true
  IPv6: true
  Identifiers: []
  Instances: 1
  Latitude: 3.139003
  Longitude: 101.686855
  Town: Kuala
  Type: Local
- Country: MY
  IPv4: true
  IPv6: true
  Identifiers: []
  Instances: 1
  Latitude: 3.139003
  Longitude: 101.686855
  Town: Kuala Lumpur
  Type: Local
- Country: KW
  IPv4: true
  IPv6: true
  Identifiers: []
  Instances: 1
  Latitude: 29.375859
  Longitude: 47.9774052
  Town: Kuwait City
  Type: Local
- Country: NG
  IPv4: true
  IPv6: true
  Identifiers: []
  Instances: 1
  Latitude: 6.5243793
  Longitude: 3.3792057
  Town: Lagos
  Type: Local
- Country: BO
  IPv4: true
  IPv6: true
  Identifiers: []
  Instances: 1
  Latitude: -16.5
  Longitude: -68.15
  Town: La Paz
  Type: Local
- Country: BO
  IPv4: true
  IPv6: true
  Identifiers: []
  Instances: 1
  Latitude: -16.4955455
  Longitude: -68.1336229
  Town: La Paz
  Type: Local
- Country: CH
  IPv4: true
  IPv6: true
  Identifiers: []
  Instances: 1
  Latitude: 46.5196535
  Longitude: 6.6322734
  Town: Lausanne
  Type: Local
- Country: GB
  IPv4: true
  IPv6: true
  Identifiers: []
  Instances: 1
  Latitude: 53.8007554
  Longitude: -1.5490774
  Town: Leeds
  Type: Local
- Country: GA
  IPv4: true
  IPv6: true
  Identifiers: []
  Instances: 1
  Latitude: 0.4161976
  Longitude: 9.4672676
  Town: Libreville
  Type: Local
- Country: PE
  IPv4: true
  IPv6: true
  Identifiers: []
  Instances: 1
  Latitude: -12.0621065
  Longitude: -77.0365256
  Town: Lima
  Type: Local
- Country: PT
  IPv4: true
  IPv6: true
  Identifiers: []
  Instances: 1
  Latitude: 38.7222524
  Longitude: -9.1393366
  Town: Lisbon
  Type: Local
- Country: TG
  IPv4: true
  IPv6: true
  Identifiers: []
  Instances: 1
  Latitude: 6.1724969
  Longitude: 1.2313618
  Town: Lome
  Type: Local
- Country: GB
  IPv4: true
  IPv6: true
  Identifiers: []
  Instances: 1
  Latitude: 51.508515
  Longitude: -0.1254872
  Town: London
  Type: Global
- Country: US
  IPv4: true
  IPv6: true
  Identifiers: []
  Instances: 1
  Latitude: 34.0522342
  Longitude: -118.2436849
  Town: Los Angeles
  Type: Global
- Country: AO
  IPv4: true
  IPv6: true
  Identifiers: []
  Instances: 1
  Latitude: -8.8399876
  Longitude: 13.2894368
  Town: Luanda
  Type: Local
- Country: CD
  IPv4: true
  IPv6: true
  Identifiers: []
  Instances: 1
  Latitude: -11.6642316
  Longitude: 27.4826264
  Town: Lubumbashi
  Type: Local
- Country: LU
  IPv4: true
  IPv6: true
  Identifiers: []
  Instances: 1
  Latitude: 49.611621
  Longitude: 6.1319346
  Town: Luxembourg City
  Type: Local
- Country: FR
  IPv4: true
  IPv6: true
  Identifiers: []
  Instances: 1
  Latitude: 45.764043
  Longitude: 4.835659
  Town: Lyon
  Type: Local
- Country: ES
  IPv4: true
  IPv6: true
  Identifiers: []
  Instances: 1
  Latitude: 40.4167754
  Longitude: -3.7037902
  Town: Madrid
  Type: Global
- Country: ES
  IPv4: true
  IPv6: true
  Identifiers: []
  Instances: 1
  Latitude: 36.7213028
  Longitude: -4.4216366
  Town: Malaga
  Type: Local
- Country: GB
  IPv4: true
  IPv6: true
  Identifiers: []
  Instances: 1
  Latitude: 53.4807593
  Longitude: -2.2426305
  Town: Manchester
  Type: Local
- Country: MZ
  IPv4: true
  IPv6: true
  Identifiers: []
  Instances: 1
  Latitude: -25.891968
  Longitude: 32.6051351
  Town: Maputo
  Type: Local
- Country: FR
  IPv4: true
  IPv6: true
  Identifiers: []
  Instances: 1
  Latitude: 43.296482
  Longitude: 5.36978
  Town: Marseille
  Type: Global
- Country: US
  IPv4: true
  IPv6: true
  Identifiers: []
  Instances: 2
  Latitude: 38.919985
  Longitude: -77.211713
  Town: McLean
  Type: Global
- Country: MX
  IPv4: true
  IPv6: true
  Identifiers: []
  Instances: 1
  Latitude: 19.4326077
  Longitude: -99.133208
  Town: Mexico City
  Type: Local
- Country: US
  IPv4: true
  IPv6: true
  Identifiers: []
  Instances: 1
  Latitude: 25.7890972
  Longitude: -80.2040435
  Town: Miami
  Type: Global
- Country: US
  IPv4: true
  IPv6: true
  Identifiers: []
  Instances: 1
  Latitude: 43.0389025
  Longitude: -87.9064736
  Town: Milwaukee
  Type: Local
- Country: US
  IPv4: true
  IPv6: true
  Identifiers: []
  Instances: 1
  Latitude: 44.9772995
  Longitude: -93.2654692
  Town: Minneapolis
  Type: Local
- Country: SO
  IPv4: true
  IPv6: true
  Identifiers: []
  Instances: 1
  Latitude: 2.0469343
  Longitude: 45.3181623
  Town: Mogadishu
  Type: Local
- Country: KE
  IPv4: true
  IPv6: true
  Identifiers: []
  Instances: 1
  Latitude: -4.0434771
  Longitude: 39.6682065
  Town: Mombasa
  Type: Local
- Country: CA
  IPv4: true
  IPv6: true
  Identifiers: []
  Instances: 1
  Latitude: 46.0878165
  Longitude: -64.7782313
  Town: Moncton
  Type: Local
- Country: LR
  IPv4: true
  IPv6: true
  Identifiers: []
  Instances: 2
  Latitude: 6.2907432
  Longitude: -10.7605239
  Town: Monrovia
  Type: Local
- Country: US
  IPv4: true
  IPv6: true
  Identifiers: []
  Instances: 1
  Latitude: 32.3668052
  Longitude: -86.2999689
  Town: Montgomery
  Type: Local
- Country: CA
  IPv4: true
  IPv6: true
  Identifiers: []
  Instances: 1
  Latitude: 45.5086699
  Longitude: -73.5539925
  Town: Montreal
  Type: Local
- Country: IN
  IPv4: true
  IPv6: true
  Identifiers: []
  Instances: 1
  Latitude: 19.0759837
  Longitude: 72.8776559
  Town: Mumbai
  Type: Local
- Country: KE
  IPv4: true
  IPv6: true
  Identifiers: []
  Instances: 1
  Latitude: -1.2920659
  Longitude: 36.8219462
  Town: Nairobi
  Type: Local
- Country: US
  IPv4: true
  IPv6: true
  Identifiers: []
  Instances: 1
  Latitude: 40.7143528
  Longitude: -74.0059731
  Town: New York
  Type: Global
- Country: 'NO'
  IPv4: true
  IPv6: true
  Identifiers: []
  Instances: 1
  Latitude: 59.9133301
  Longitude: 10.7389701
  Town: Oslo,
  Type: Local
- Country: BF
  IPv4: true
  IPv6: true
  Identifiers: []
  Instances: 1
  Latitude: 12.3714277
  Longitude: -1.5196603
  Town: Ouagadougou
  Type: Local
- Country: US
  IPv4: true
  IPv6: true
  Identifiers: []
  Instances: 1
  Latitude: 37.4418834
  Longitude: -122.1430195
  Town: Palo Alto
  Type: Global
- Country: SR
  IPv4: true
  IPv6: true
  Identifiers: []
  Instances: 1
  Latitude: 5.8247628
  Longitude: -55.1703941
  Town: Paramaribo
  Type: Local
- Country: FR
  IPv4: true
  IPv6: true
  Identifiers: []
  Instances: 1
  Latitude: 48.856614
  Longitude: 2.3522219
  Town: Paris
  Type: Global
- Country: BT
  IPv4: true
  IPv6: true
  Identifiers: []
  Instances: 1
  Latitude: 27.428684
  Longitude: 89.4163654
  Town: Paro
  Type: Local
- Country: AU
  IPv4: true
  IPv6: true
  Identifiers: []
  Instances: 1
  Latitude: -31.9530044
  Longitude: 115.8574693
  Town: Perth
  Type: Local
- Country: KH
  IPv4: true
  IPv6: true
  Identifiers: []
  Instances: 1
  Latitude: 11.5448729
  Longitude: 104.8921668
  Town: Phnom Penh
  Type: Local
- Country: US
  IPv4: true
  IPv6: true
  Identifiers: []
  Instances: 1
  Latitude: 33.4483771
  Longitude: -112.0740373
  Town: Phoenix
  Type: Local
- Country: BR
  IPv4: true
  IPv6: true
  Identifiers: []
  Instances: 1
  Latitude: -25.0891685
  Longitude: -50.1601812
  Town: Ponta Grossa
  Type: Local
- Country: HT
  IPv4: true
  IPv6: true
  Identifiers: []
  Instances: 1
  Latitude: 18.594395
  Longitude: -72.3074326
  Town: Port Au Prince
  Type: Local
- Country: US
  IPv4: true
  IPv6: true
  Identifiers: []
  Instances: 1
  Latitude: 45.5234515
  Longitude: -122.6762071
  Town: Portland
  Type: Local
- Country: MU
  IPv4: true
  IPv6: true
  Identifiers: []
  Instances: 1
  Latitude: -20.1668958
  Longitude: 57.502332
  Town: Port Louis
  Type: Local
- Country: TT
  IPv4: true
  IPv6: true
  Identifiers: []
  Instances: 1
  Latitude: 10.6549013
  Longitude: -61.5019256
  Town: Port of Spain
  Type: Local
- Country: AR
  IPv4: true
  IPv6: true
  Identifiers: []
  Instances: 1
  Latitude: -27.3621374
  Longitude: -55.9008746
  Town: Posadus
  Type: Local
- Country: CZ
  IPv4: true
  IPv6: true
  Identifiers: []
  Instances: 1
  Latitude: 50.0755381
  Longitude: 14.4378005
  Town: Prague
  Type: Local
- Country: US
  IPv4: true
  IPv6: true
  Identifiers: []
  Instances: 1
  Latitude: 39.5296329
  Longitude: -119.8138027
  Town: Reno
  Type: Local
- Country: IS
  IPv4: true
  IPv6: true
  Identifiers: []
  Instances: 1
  Latitude: 64.133333
  Longitude: -21.933333
  Town: Reykjavik
  Type: Local
- Country: US
  IPv4: true
  IPv6: true
  Identifiers: []
  Instances: 2
  Latitude: 37.5407246
  Longitude: -77.4360481
  Town: Richmond
  Type: Local
- Country: LV
  IPv4: true
  IPv6: true
  Identifiers: []
  Instances: 1
  Latitude: 56.9496487
  Longitude: 24.1051864
  Town: Riga
  Type: Local
- Country: SA
  IPv4: true
  IPv6: true
  Identifiers: []
  Instances: 1
  Latitude: 24.638916
  Longitude: 46.7160104
  Town: Riyadh
  Type: Local
- Country: IT
  IPv4: true
  IPv6: true
  Identifiers: []
  Instances: 1
  Latitude: 41.9027835
  Longitude: 12.4963655
  Town: Rome
  Type: Local
- Country: AR
  IPv4: true
  IPv6: true
  Identifiers: []
  Instances: 1
  Latitude: -32.9442426
  Longitude: -60.6505388
  Town: Rosario
  Type: Local
- Country: ZA
  IPv4: true
  IPv6: true
  Identifiers: []
  Instances: 1
  Latitude: -33.0276981
  Longitude: 17.9176312
  Town: Saldanha Bay
  Type: Local
- Country: US
  IPv4: true
  IPv6: true
  Identifiers: []
  Instances: 1
  Latitude: 40.7596198
  Longitude: -111.8867975
  Town: Salt Lake City
  Type: Local
- Country: AT
  IPv4: true
  IPv6: true
  Identifiers: []
  Instances: 1
  Latitude: 47.80949
  Longitude: 13.05501
  Town: Salzburg
  Type: Local
- Country: US
  IPv4: true
  IPv6: true
  Identifiers: []
  Instances: 1
  Latitude: 37.7749295
  Longitude: -122.4194155
  Town: San Francisco
  Type: Local
- Country: US
  IPv4: true
  IPv6: true
  Identifiers: []
  Instances: 1
  Latitude: 37.3382082
  Longitude: -121.8863286
  Town: San Jose
  Type: Local
- Country: CR
  IPv4: true
  IPv6: true
  Identifiers: []
  Instances: 1
  Latitude: 9.9280694
  Longitude: -84.0907246
  Town: San Jose
  Type: Local
- Country: PR
  IPv4: true
  IPv6: true
  Identifiers: []
  Instances: 1
  Latitude: 18.4663338
  Longitude: -66.1057217
  Town: San Juan
  Type: Local
- Country: CL
  IPv4: true
  IPv6: true
  Identifiers: []
  Instances: 1
  Latitude: -33.4488897
  Longitude: -70.6692655
  Town: Santiago
  Type: Local
- Country: CA
  IPv4: true
  IPv6: true
  Identifiers: []
  Instances: 1
  Latitude: 52.1332144
  Longitude: -106.6700458
  Town: Saskatoon
  Type: Local
- Country: US
  IPv4: true
  IPv6: true
  Identifiers: []
  Instances: 1
  Latitude: 47.6062095
  Longitude: -122.3320708
  Town: Seattle
  Type: Global
- Country: KZ
  IPv4: true
  IPv6: true
  Identifiers: []
  Instances: 1
  Latitude: 50.4233463
  Longitude: 80.250811
  Town: Semey City
  Type: Local
- Country: KR
  IPv4: true
  IPv6: true
  Identifiers: []
  Instances: 1
  Latitude: 37.566535
  Longitude: 126.9779692
  Town: Seoul
  Type: Local
- Country: DE
  IPv4: true
  IPv6: true
  Identifiers: []
  Instances: 1
  Latitude: 50.7072535
  Longitude: 8.0761931
  Town: Siegerland
  Type: Local
- Country: SG
  IPv4: true
  IPv6: true
  Identifiers: []
  Instances: 1
  Latitude: 1.2800945
  Longitude: 103.8509491
  Town: Singapore
  Type: Global
- Country: MK
  IPv4: true
  IPv6: true
  Identifiers: []
  Instances: 1
  Latitude: 41.9960924
  Longitude: 21.4316495
  Town: Skopje
  Type: Local
- Country: BG
  IPv4: true
  IPv6: true
  Identifiers: []
  Instances: 1
  Latitude: 42.6977082
  Longitude: 23.3218675
  Town: Sofia
  Type: Local
- Country: US
  IPv4: true
  IPv6: true
  Identifiers: []
  Instances: 1
  Latitude: 37.0965278
  Longitude: -113.5684164
  Town: St. George
  Type: Local
- Country: GD
  IPv4: true
  IPv6: true
  Identifiers: []
  Instances: 1
  Latitude: 12.0560975
  Longitude: -61.7487996
  Town: St. George's
  Type: Local
- Country: US
  IPv4: true
  IPv6: true
  Identifiers: []
  Instances: 1
  Latitude: 38.6270025
  Longitude: -90.1994042
  Town: st louis
  Type: Local
- Country: SE
  IPv4: true
  IPv6: true
  Identifiers: []
  Instances: 1
  Latitude: 59.3293235
  Longitude: 18.0685808
  Town: Stockholm
  Type: Local
- Country: DE
  IPv4: true
  IPv6: true
  Identifiers: []
  Instances: 1
  Latitude: 48.7784485
  Longitude: 9.1800132
  Town: Stuttgart
  Type: Local
- Country: AU
  IPv4: true
  IPv6: true
  Identifiers: []
  Instances: 1
  Latitude: -33.8674869
  Longitude: 151.2069902
  Town: Sydney
  Type: Local
- Country: TW
  IPv4: true
  IPv6: true
  Identifiers: []
  Instances: 1
  Latitude: 25.0329694
  Longitude: 121.5654177
  Town: Taipei
  Type: Local
- Country: EE
  IPv4: true
  IPv6: true
  Identifiers: []
  Instances: 1
  Latitude: 59.4369608
  Longitude: 24.7535746
  Town: Tallinn
  Type: Local
- Country: US
  IPv4: true
  IPv6: true
  Identifiers: []
  Instances: 1
  Latitude: 27.950575
  Longitude: -82.4571776
  Town: Tampa
  Type: Local
- Country: FI
  IPv4: true
  IPv6: true
  Identifiers: []
  Instances: 1
  Latitude: 61.5
  Longitude: 23.766667
  Town: Tampere
  Type: Local
- Country: UZ
  IPv4: true
  IPv6: true
  Identifiers: []
  Instances: 1
  Latitude: 41.3123363
  Longitude: 69.2787079
  Town: Tashkent
  Type: Local
- Country: HN
  IPv4: true
  IPv6: true
  Identifiers: []
  Instances: 2
  Latitude: 14.0722751
  Longitude: -87.192136
  Town: Tegucigalpa
  Type: Local
- Country: IL
  IPv4: true
  IPv6: true
  Identifiers: []
  Instances: 1
  Latitude: 32.0852999
  Longitude: 34.7817676
  Town: Tel Aviv
  Type: Local
- Country: AL
  IPv4: true
  IPv6: true
  Identifiers: []
  Instances: 1
  Latitude: 41.3275459
  Longitude: 19.8186982
  Town: Tirana
  Type: Local
- Country: JP
  IPv4: true
  IPv6: true
  Identifiers: []
  Instances: 1
  Latitude: 35.7766076
  Longitude: 140.3187806
  Town: Tokyo
  Type: Global
- Country: CA
  IPv4: true
  IPv6: true
  Identifiers: []
  Instances: 1
  Latitude: 43.653226
  Longitude: -79.3831843
  Town: Toronto
  Type: Local
- Country: 'NO'
  IPv4: true
  IPv6: true
  Identifiers: []
  Instances: 1
  Latitude: 63.4305658
  Longitude: 10.3951929
  Town: Trondheim
  Type: Local
- Country: TN
  IPv4: true
  IPv6: true
  Identifiers: []
  Instances: 1
  Latitude: 36.8064948
  Longitude: 10.1815316
  Town: Tunis
  Type: Local
- Country: IT
  IPv4: true
  IPv6: true
  Identifiers: []
  Instances: 1
  Latitude: 45.070312
  Longitude: 7.6868565
  Town: Turin
  Type: Local
- Country: AT
  IPv4: true
  IPv6: true
  Identifiers: []
  Instances: 1
  Latitude: 48.2081743
  Longitude: 16.3738189
  Town: Vienna
  Type: Global
- Country: LT
  IPv4: true
  IPv6: true
  Identifiers: []
  Instances: 1
  Latitude: 54.6871555
  Longitude: 25.2796514
  Town: Vilnios
  Type: Local
- Country: PL
  IPv4: true
  IPv6: true
  Identifiers: []
  Instances: 1
  Latitude: 52.2296756
  Longitude: 21.0122287
  Town: Warsaw
  Type: Local
- Country: NZ
  IPv4: true
  IPv6: true
  Identifiers: []
  Instances: 1
  Latitude: -41.2864603
  Longitude: 174.776236
  Town: Wellington
  Type: Local
- Country: NA
  IPv4: true
  IPv6: true
  Identifiers: []
  Instances: 1
  Latitude: -22.5608807
  Longitude: 17.0657549
  Town: Windhoek
  Type: Local
- Country: CA
  IPv4: true
  IPv6: true
  Identifiers: []
  Instances: 1
  Latitude: 49.8997541
  Longitude: -97.1374937
  Town: Winnipeg
  Type: Local
- Country: AM
  IPv4: true
  IPv6: true
  Identifiers: []
  Instances: 1
  Latitude: 40.1791857
  Longitude: 44.4991029
  Town: Yerevan
  Type: Local
- Country: HR
  IPv4: true
  IPv6: true
  Identifiers: []
  Instances: 1
  Latitude: 45.8150108
  Longitude: 15.981919
  Town: Zagreb
  Type: Local
- Country: CH
  IPv4: true
  IPv6: true
  Identifiers: []
  Instances: 2
  Latitude: 47.3768866
  Longitude: 8.541694
  Town: Zurich
  Type: Global
Statistics: ''
