ASN: '26415'
Contact Email: ''
Homepage: http://a.root-servers.org/
IPv4: 198.41.0.4
IPv6: 2001:503:BA3E::2:30
Instances:
- Country: DE
  IPv4: 'Yes'
  IPv6: 'Yes'
  Latitude: '50.1109221'
  Longitude: '8.6821267'
  Sites: 1
  Town: Frankfurt
- Country: HK
  IPv4: 'Yes'
  IPv6: 'Yes'
  Latitude: '22.396428'
  Longitude: '114.109497'
  Sites: 1
  Town: Hong Kong
- Country: UK
  IPv4: 'Yes'
  IPv6: 'Yes'
  Latitude: '51.5073509'
  Longitude: '-0.1277583'
  Sites: 1
  Town: London
- Country: US
  IPv4: 'Yes'
  IPv6: 'Yes'
  Latitude: '34.0522342'
  Longitude: '-118.2436849'
  Sites: 1
  State: CA
  Town: Los Angeles
- Country: US
  IPv4: 'Yes'
  IPv6: 'Yes'
  Latitude: '40.7127837'
  Longitude: '-74.0059413'
  Sites: 1
  State: NY
  Town: New York
Operator: Verisign, Inc.
Peering Policy: ''
Statistics: http://a.root-servers.org/metrics.html
