ASN: '5927'
Contact Email: ''
Homepage: http://whois.arin.net/rest/poc/MIL-HSTMST-ARIN
IPv4: 192.112.36.4
IPv6: ''
Instances:
- Country: US
  IPv4: 'Yes'
  IPv6: 'No'
  Latitude: '39.9611755'
  Longitude: '-82.9987942'
  Sites: 1
  State: OH
  Town: Columbus
- Country: JP
  IPv4: 'Yes'
  IPv6: 'No'
  Latitude: '35.7384505'
  Longitude: '139.3269322'
  Sites: 1
  Town: Fussa
- Country: US
  IPv4: 'Yes'
  IPv6: 'No'
  Latitude: '21.3069444'
  Longitude: '-157.8583333'
  Sites: 1
  State: HI
  Town: Honolulu
- Country: IT
  IPv4: 'Yes'
  IPv6: 'No'
  Latitude: '40.8517746'
  Longitude: '14.2681244'
  Sites: 1
  Town: Naples
- Country: US
  IPv4: 'Yes'
  IPv6: 'No'
  Latitude: '29.4241219'
  Longitude: '-98.4936282'
  Sites: 1
  State: TX
  Town: San Antonio
- Country: DE
  IPv4: 'Yes'
  IPv6: 'No'
  Latitude: '48.7303646'
  Longitude: '9.1079418'
  Sites: 1
  Town: Stuttgart-Vaihingen
Operator: U.S. DOD Network Information Center
Peering Policy: ''
Statistics: ''
