ASN: 25152
Contact Email: dns@ripe.net
Homepage: http://k.root-servers.org/
IPv4: 193.0.14.129
IPv6: 2001:7fd::1
Identifier Naming Convention: ns/\d+.{UN-LOCODE-SITE-ID}.k.ripe.net
Operator: RIPE NCC
Peering Policy: https://www.ripe.net/analyse/dns/k-root/k-root-peering-policy
RSSAC: https://www-static.ripe.net/dynamic/rssac002-metrics/
Sites:
- Country: AM
  IPv4: true
  IPv6: true
  Identifiers: []
  Instances: 1
  Latitude: 40.271765
  Longitude: 44.633584
  Town: Abovyan
  Type: Global
- Country: NL
  IPv4: true
  IPv6: true
  Identifiers:
  - ns1.nl-ams.k.ripe.net
  - ns2.nl-ams.k.ripe.net
  - ns3.nl-ams.k.ripe.net
  Instances: 1
  Latitude: 52.3702157
  Longitude: 4.8951679
  Town: Amsterdam
  Type: Global
- Country: US
  IPv4: true
  IPv6: true
  Identifiers: []
  Instances: 1
  Latitude: 37.7590318
  Longitude: -77.4799837
  Town: Ashland
  Type: Global
- Country: GR
  IPv4: true
  IPv6: true
  Identifiers: []
  Instances: 1
  Latitude: 37.9837155
  Longitude: 23.7293097
  Town: Athens
  Type: Global
- Country: ES
  IPv4: true
  IPv6: true
  Identifiers: []
  Instances: 1
  Latitude: 41.297445
  Longitude: 2.0832941
  Town: Barcelona
  Type: Global
- Country: CN
  IPv4: true
  IPv6: true
  Identifiers: []
  Instances: 1
  Latitude: 39.9041999
  Longitude: 116.4073963
  Town: Beijing
  Type: Local
- Country: LB
  IPv4: true
  IPv6: true
  Identifiers: []
  Instances: 1
  Latitude: 33.8937913
  Longitude: 35.5017767
  Town: Beirut
  Type: Global
- Country: RS
  IPv4: true
  IPv6: true
  Identifiers: []
  Instances: 1
  Latitude: 44.786568
  Longitude: 20.4489216
  Town: Belgrade
  Type: Global
- Country: DE
  IPv4: true
  IPv6: true
  Identifiers: []
  Instances: 2
  Latitude: 52.5200066
  Longitude: 13.404954
  Town: Berlin
  Type: Global
- Country: AU
  IPv4: true
  IPv6: true
  Identifiers: []
  Instances: 1
  Latitude: -27.4710107
  Longitude: 153.0234489
  Town: Brisbane
  Type: Global
- Country: RO
  IPv4: true
  IPv6: true
  Identifiers: []
  Instances: 1
  Latitude: 44.4379268
  Longitude: 26.0244262
  Town: Bucharest
  Type: Global
- Country: HU
  IPv4: true
  IPv6: true
  Identifiers: []
  Instances: 1
  Latitude: 47.497912
  Longitude: 19.040235
  Town: Budapest
  Type: Global
- Country: AR
  IPv4: true
  IPv6: true
  Identifiers: []
  Instances: 1
  Latitude: -34.6036844
  Longitude: -58.3815591
  Town: Buenos Aires
  Type: Global
- Country: CA
  IPv4: true
  IPv6: true
  Identifiers: []
  Instances: 1
  Latitude: 51.0486151
  Longitude: -114.0708459
  Town: Calgary
  Type: Global
- Country: US
  IPv4: true
  IPv6: true
  Identifiers: []
  Instances: 1
  Latitude: 39.95991
  Longitude: -82.98866
  Town: Columbus
  Type: Global
- Country: IE
  IPv4: true
  IPv6: true
  Identifiers: []
  Instances: 1
  Latitude: 51.8959843
  Longitude: -8.5330895
  Town: Cork
  Type: Global
- Country: ID
  IPv4: true
  IPv6: true
  Identifiers: []
  Instances: 1
  Latitude: -8.6524973
  Longitude: 115.2191175
  Town: Denpasar
  Type: Global
- Country: QA
  IPv4: true
  IPv6: true
  Identifiers: []
  Instances: 1
  Latitude: 25.2854473
  Longitude: 51.5310398
  Town: Doha
  Type: Global
- Country: AE
  IPv4: true
  IPv6: false
  Identifiers: []
  Instances: 1
  Latitude: 25.204849
  Longitude: 55.270782
  Town: Dubai
  Type: Global
- Country: TJ
  IPv4: true
  IPv6: true
  Identifiers: []
  Instances: 1
  Latitude: 38.5597722
  Longitude: 68.7870384
  Town: Dushanbe
  Type: Global
- Country: AT
  IPv4: true
  IPv6: true
  Identifiers: []
  Instances: 1
  Latitude: 47.24128
  Longitude: 9.6019
  Town: Feldkirch
  Type: Global
- Country: DE
  IPv4: true
  IPv6: true
  Identifiers:
  - ns1.de-fra.k.ripe.net
  - ns2.de-fra.k.ripe.net
  - ns3.de-fra.k.ripe.net
  Instances: 1
  Latitude: 50.1109221
  Longitude: 8.6821267
  Town: Frankfurt
  Type: Global
- Country: PL
  IPv4: true
  IPv6: true
  Identifiers: []
  Instances: 1
  Latitude: 54.4050713
  Longitude: 18.5769101
  Town: Gdynia
  Type: Global
- Country: CH
  IPv4: true
  IPv6: true
  Identifiers: []
  Instances: 1
  Latitude: 46.1983922
  Longitude: 6.1422961
  Town: Geneva
  Type: Global
- Country: CN
  IPv4: true
  IPv6: true
  Identifiers: []
  Instances: 1
  Latitude: 23.128994
  Longitude: 113.25325
  Town: Guangzhou
  Type: Local
- Country: CN
  IPv4: true
  IPv6: true
  Identifiers: []
  Instances: 1
  Latitude: 26.647661
  Longitude: 106.630153
  Town: Guiyang
  Type: Local
- Country: DE
  IPv4: true
  IPv6: true
  Identifiers: []
  Instances: 1
  Latitude: 53.558243
  Longitude: 9.6469591
  Town: Hamburg
  Type: Global
- Country: VN
  IPv4: true
  IPv6: true
  Identifiers: []
  Instances: 1
  Latitude: 21.01849
  Longitude: 105.85074
  Town: Ha Noi
  Type: Global
- Country: FI
  IPv4: true
  IPv6: true
  Identifiers: []
  Instances: 1
  Latitude: 60.1733244
  Longitude: 24.9410248
  Town: Helsinki
  Type: Global
- Country: ID
  IPv4: true
  IPv6: true
  Identifiers: []
  Instances: 1
  Latitude: -6.17511
  Longitude: 106.865036
  Town: Jakarta
  Type: Global
- Country: ZA
  IPv4: true
  IPv6: true
  Identifiers: []
  Instances: 1
  Latitude: -26.1567008
  Longitude: 27.9807018
  Town: Johannesburg
  Type: Global
- Country: US
  IPv4: true
  IPv6: true
  Identifiers: []
  Instances: 1
  Latitude: 39.0997265
  Longitude: -94.5785667
  Town: Kansas City
  Type: Global
- Country: DE
  IPv4: true
  IPv6: true
  Identifiers: []
  Instances: 1
  Latitude: 49.0068901
  Longitude: 8.4036527
  Town: Karlsruhe
  Type: Global
- Country: KW
  IPv4: true
  IPv6: true
  Identifiers: []
  Instances: 2
  Latitude: 29.342143
  Longitude: 47.945333
  Town: Kuwait City
  Type: Global
- Country: UK
  IPv4: true
  IPv6: true
  Identifiers:
  - ns1.gb-lon.k.ripe.net
  - ns2.gb-lon.k.ripe.net
  - ns3.gb-lon.k.ripe.net
  Instances: 1
  Latitude: 51.508515
  Longitude: -0.1254872
  Town: London
  Type: Global
- Country: UA
  IPv4: true
  IPv6: true
  Identifiers: []
  Instances: 1
  Latitude: 48.574041
  Longitude: 39.307815
  Town: Lugansk
  Type: Global
- Country: LU
  IPv4: true
  IPv6: true
  Identifiers: []
  Instances: 1
  Latitude: 49.815273
  Longitude: 6.129583
  Town: Luxembourg
  Type: Global
- Country: FR
  IPv4: true
  IPv6: true
  Identifiers: []
  Instances: 1
  Latitude: 45.764043
  Longitude: 4.835659
  Town: Lyon
  Type: Global
- Country: ES
  IPv4: true
  IPv6: true
  Identifiers: []
  Instances: 1
  Latitude: 40.4167754
  Longitude: -3.7037902
  Town: Madrid
  Type: Global
- Country: BH
  IPv4: true
  IPv6: true
  Identifiers: []
  Instances: 1
  Latitude: 26.2285161
  Longitude: 50.5860497
  Town: Manama
  Type: Global
- Country: US
  IPv4: true
  IPv6: true
  Identifiers:
  - ns1.us-mia.k.ripe.net
  - ns2.us-mia.k.ripe.net
  - ns3.us-mia.k.ripe.net
  Instances: 1
  Latitude: 25.7889689
  Longitude: -80.2264393
  Town: Miami
  Type: Global
- Country: IT
  IPv4: true
  IPv6: true
  Identifiers: []
  Instances: 1
  Latitude: 45.4654542
  Longitude: 9.186516
  Town: Milan
  Type: Global
- Country: UY
  IPv4: true
  IPv6: true
  Identifiers: []
  Instances: 1
  Latitude: -34.8195806
  Longitude: -56.3702903
  Town: Montevideo
  Type: Global
- Country: RU
  IPv4: true
  IPv6: true
  Identifiers: []
  Instances: 1
  Latitude: 55.755826
  Longitude: 37.6173
  Town: Moscow
  Type: Global
- Country: IN
  IPv4: true
  IPv6: true
  Identifiers: []
  Instances: 1
  Latitude: 18.9523804
  Longitude: 72.8327112
  Town: Mumbai
  Type: Global
- Country: IN
  IPv4: true
  IPv6: true
  Identifiers: []
  Instances: 1
  Latitude: 28.567934
  Longitude: 77.335489
  Town: Noida
  Type: Global
- Country: RU
  IPv4: true
  IPv6: true
  Identifiers: []
  Instances: 1
  Latitude: 55.0166667
  Longitude: 82.9333333
  Town: Novosibirsk
  Type: Local
- Country: GL
  IPv4: true
  IPv6: true
  Identifiers: []
  Instances: 1
  Latitude: 64.1814099
  Longitude: -51.6941381
  Town: Nuuk
  Type: Global
- Country: IT
  IPv4: true
  IPv6: true
  Identifiers: []
  Instances: 1
  Latitude: 38.11569
  Longitude: 13.3614868
  Town: Palermo
  Type: Global
- Country: PA
  IPv4: true
  IPv6: true
  Identifiers: []
  Instances: 1
  Latitude: 8.983333
  Longitude: -79.51667
  Town: Panama City
  Type: Global
- Country: FR
  IPv4: true
  IPv6: true
  Identifiers: []
  Instances: 1
  Latitude: 48.880528
  Longitude: 2.2855013
  Town: Paris
  Type: Global
- Country: KH
  IPv4: true
  IPv6: true
  Identifiers: []
  Instances: 1
  Latitude: 11.562108
  Longitude: 104.888535
  Town: Phnom Penh
  Type: Global
- Country: BR
  IPv4: true
  IPv6: true
  Identifiers: []
  Instances: 1
  Latitude: -25.0891685
  Longitude: -50.1601812
  Town: Ponta Grossa
  Type: Global
- Country: PL
  IPv4: true
  IPv6: true
  Identifiers: []
  Instances: 1
  Latitude: 52.406374
  Longitude: 16.9251681
  Town: Poznan
  Type: Global
- Country: CZ
  IPv4: true
  IPv6: true
  Identifiers: []
  Instances: 1
  Latitude: 50.0755381
  Longitude: 14.4378005
  Town: Prague
  Type: Global
- Country: IT
  IPv4: true
  IPv6: true
  Identifiers: []
  Instances: 1
  Latitude: 43.87309
  Longitude: 11.08278
  Town: Prato
  Type: Global
- Country: US
  IPv4: true
  IPv6: true
  Identifiers: []
  Instances: 1
  Latitude: 39.529615
  Longitude: -119.814378
  Town: Reno
  Type: Global
- Country: IS
  IPv4: true
  IPv6: true
  Identifiers: []
  Instances: 1
  Latitude: 64.135338
  Longitude: -21.89521
  Town: Reykjavik
  Type: Global
- Country: US
  IPv4: true
  IPv6: true
  Identifiers: []
  Instances: 1
  Latitude: 37.5246403
  Longitude: -77.5633015
  Town: Richmond
  Type: Global
- Country: LV
  IPv4: true
  IPv6: true
  Identifiers: []
  Instances: 1
  Latitude: 56.9496487
  Longitude: 24.1051864
  Town: Riga
  Type: Global
- Country: SA
  IPv4: true
  IPv6: true
  Identifiers: []
  Instances: 1
  Latitude: 24.7135517
  Longitude: 46.6752957
  Town: Riyadh
  Type: Global
- Country: RU
  IPv4: true
  IPv6: true
  Identifiers: []
  Instances: 1
  Latitude: 59.9342802
  Longitude: 30.3350986
  Town: Saint Petersburg
  Type: Global
- Country: BR
  IPv4: true
  IPv6: true
  Identifiers: []
  Instances: 1
  Latitude: -12.977749
  Longitude: -38.5016301
  Town: Salvador
  Type: Global
- Country: AT
  IPv4: true
  IPv6: true
  Identifiers: []
  Instances: 1
  Latitude: 47.80949
  Longitude: 13.05501
  Town: Salzburg
  Type: Global
- Country: CR
  IPv4: true
  IPv6: true
  Identifiers: []
  Instances: 1
  Latitude: 9.9280694
  Longitude: -84.0907246
  Town: San Jose
  Type: Global
- Country: CL
  IPv4: true
  IPv6: true
  Identifiers: []
  Instances: 1
  Latitude: -33.4488897
  Longitude: -70.6692655
  Town: Santiago
  Type: Global
- Country: BA
  IPv4: true
  IPv6: true
  Identifiers: []
  Instances: 1
  Latitude: 43.85679
  Longitude: 18.41887
  Town: Sarajevo
  Type: Global
- Country: KZ
  IPv4: true
  IPv6: true
  Identifiers: []
  Instances: 1
  Latitude: 50.4130211
  Longitude: 80.205488
  Town: Semey
  Type: Global
- Country: BG
  IPv4: true
  IPv6: true
  Identifiers: []
  Instances: 2
  Latitude: 42.6977211
  Longitude: 23.3225964
  Town: Sofia
  Type: Global
- Country: US
  IPv4: true
  IPv6: true
  Identifiers: []
  Instances: 1
  Latitude: 37.1078482
  Longitude: -113.5824007
  Town: St George
  Type: Global
- Country: TW
  IPv4: true
  IPv6: true
  Identifiers: []
  Instances: 1
  Latitude: 25.0329694
  Longitude: 121.5654177
  Town: Taipei
  Type: Global
- Country: EE
  IPv4: true
  IPv6: true
  Identifiers: []
  Instances: 1
  Latitude: 59.4369608
  Longitude: 24.7535747
  Town: Tallinn
  Type: Global
- Country: GE
  IPv4: true
  IPv6: true
  Identifiers: []
  Instances: 1
  Latitude: 41.7323742
  Longitude: 44.6987687
  Town: Tbilisi
  Type: Global
- Country: IR
  IPv4: true
  IPv6: true
  Identifiers: []
  Instances: 3
  Latitude: 35.696111
  Longitude: 51.423056
  Town: Tehran
  Type: Global
- Country: BT
  IPv4: true
  IPv6: true
  Identifiers: []
  Instances: 1
  Latitude: 27.4727924
  Longitude: 89.6392863
  Town: Thimphu
  Type: Global
- Country: JP
  IPv4: true
  IPv6: true
  Identifiers:
  - ns1.jp-tyo.k.ripe.net
  - ns2.jp-tyo.k.ripe.net
  - ns3.jp-tyo.k.ripe.net
  Instances: 1
  Latitude: 35.6894875
  Longitude: 139.6917064
  Town: Tokyo
  Type: Global
- Country: AT
  IPv4: true
  IPv6: true
  Identifiers: []
  Instances: 2
  Latitude: 48.2081743
  Longitude: 16.3738189
  Town: Vienna
  Type: Global
- Country: LT
  IPv4: true
  IPv6: true
  Identifiers: []
  Instances: 1
  Latitude: 54.6871555
  Longitude: 25.2796514
  Town: Vilnius
  Type: Global
- Country: PL
  IPv4: true
  IPv6: true
  Identifiers: []
  Instances: 1
  Latitude: 52.2296756
  Longitude: 21.0122287
  Town: Warsaw
  Type: Global
- Country: MM
  IPv4: true
  IPv6: true
  Identifiers: []
  Instances: 1
  Latitude: 16.9098592
  Longitude: 96.0118936
  Town: Yangon
  Type: Global
- Country: AM
  IPv4: true
  IPv6: true
  Identifiers: []
  Instances: 1
  Latitude: 40.183333
  Longitude: 44.516667
  Town: Yerevan
  Type: Global
- Country: ID
  IPv4: true
  IPv6: true
  Identifiers: []
  Instances: 1
  Latitude: -7.7956
  Longitude: 110.3695
  Town: Yogyakarta
  Type: Global
- Country: CH
  IPv4: true
  IPv6: true
  Identifiers: []
  Instances: 1
  Latitude: 47.3686498
  Longitude: 8.5391825
  Town: Zurich
  Type: Global
Statistics: https://www.ripe.net/analyse/dns/k-root/statistics
