ASN: 7342
BGP Community Convention: ''
BGP Extended Community Convention: ''
BGP Large Community Convention: ''
Contact Email: rootdns@verisign.com
Homepage: https://a.root-servers.org/
IPv4: 198.41.0.4
IPv6: 2001:503:ba3e::2:30
Identifier Naming Convention: ''
Operator: Verisign, Inc.
Peering Policy: https://www.peeringdb.com/net/873
RSSAC001: ''
RSSAC002: https://a.root-servers.org/metrics/index.html
Sites:
- BGP Intermediate AS: null
  BGP Origin AS: 396587
  BGP Site Identifier: ''
  Country: NL
  Created: '2023-11-06T09:05:06Z'
  ID: mkJLoK
  IPv4: true
  IPv6: true
  Identifiers:
  - a1.nl-ams.root
  - n1.nl-ams.root
  Instances: 1
  Latitude: 52.3702157
  Longitude: 4.8951679
  Status: ''
  Town: Amsterdam
  Type: Global
  Updated: '2023-11-06T09:05:06Z'
- BGP Intermediate AS: null
  BGP Origin AS: 396566
  BGP Site Identifier: ''
  Country: NL
  Created: '2023-11-06T09:05:06Z'
  ID: Bp3Uni
  IPv4: true
  IPv6: true
  Identifiers:
  - a5.nl-ams.root
  - n5.nl-ams.root
  Instances: 1
  Latitude: 52.3702157
  Longitude: 4.8951679
  Status: ''
  Town: Amsterdam
  Type: Local
  Updated: '2023-11-06T09:05:06Z'
- BGP Intermediate AS: null
  BGP Origin AS: 396613
  BGP Site Identifier: ''
  Country: NL
  Created: '2023-11-06T09:05:06Z'
  ID: MOSghc
  IPv4: true
  IPv6: true
  Identifiers:
  - a1a.nl-ams.root
  - n1a.nl-ams.root
  Instances: 1
  Latitude: 52.3702157
  Longitude: 4.8951679
  Status: ''
  Town: Amsterdam
  Type: Global
  Updated: '2023-11-06T09:05:06Z'
- BGP Intermediate AS: null
  BGP Origin AS: 32651
  BGP Site Identifier: ''
  Country: NL
  Created: '2023-11-06T09:05:06Z'
  ID: 84iEB1
  IPv4: true
  IPv6: true
  Identifiers:
  - a4.nl-ams.root
  - n4.nl-ams.root
  Instances: 1
  Latitude: 52.3702157
  Longitude: 4.8951679
  Status: ''
  Town: Amsterdam
  Type: Global
  Updated: '2023-11-06T09:05:06Z'
- BGP Intermediate AS: null
  BGP Origin AS: 396567
  BGP Site Identifier: ''
  Country: NL
  Created: '2023-11-06T09:05:06Z'
  ID: LFjGz7
  IPv4: true
  IPv6: true
  Identifiers:
  - a6.nl-ams.root
  - n6.nl-ams.root
  Instances: 1
  Latitude: 52.3702157
  Longitude: 4.8951679
  Status: ''
  Town: Amsterdam
  Type: Local
  Updated: '2023-11-06T09:05:06Z'
- BGP Intermediate AS: null
  BGP Origin AS: 10515
  BGP Site Identifier: ''
  Country: US
  Created: '2023-11-06T09:05:06Z'
  ID: 2RWCo2
  IPv4: true
  IPv6: true
  Identifiers:
  - a21-a.us-qas.root
  - n21-a.us-qas.root
  Instances: 1
  Latitude: 39.0437567
  Longitude: -77.4874416
  Status: ''
  Town: Ashburn
  Type: Global
  Updated: '2023-11-06T09:05:06Z'
- BGP Intermediate AS: null
  BGP Origin AS: 36630
  BGP Site Identifier: ''
  Country: US
  Created: '2023-11-06T09:05:06Z'
  ID: H2TF1g
  IPv4: true
  IPv6: true
  Identifiers:
  - a3.us-iad.root
  - n3.us-iad.root
  Instances: 1
  Latitude: 39.0437567
  Longitude: -77.4874416
  Status: ''
  Town: Ashburn
  Type: Local
  Updated: '2023-11-06T09:05:06Z'
- BGP Intermediate AS: null
  BGP Origin AS: 10515
  BGP Site Identifier: ''
  Country: US
  Created: '2023-11-06T09:05:06Z'
  ID: vnm9yR
  IPv4: true
  IPv6: true
  Identifiers:
  - a1.us-iad.root
  - n1.us-iad.root
  Instances: 1
  Latitude: 39.0437567
  Longitude: -77.4874416
  Status: ''
  Town: Ashburn
  Type: Global
  Updated: '2023-11-06T09:05:06Z'
- BGP Intermediate AS: null
  BGP Origin AS: 397203
  BGP Site Identifier: ''
  Country: US
  Created: '2023-11-06T09:05:06Z'
  ID: UEUwXk
  IPv4: true
  IPv6: true
  Identifiers:
  - a4.us-iad.root
  - n4.us-iad.root
  Instances: 1
  Latitude: 39.0437567
  Longitude: -77.4874416
  Status: ''
  Town: Ashburn
  Type: Local
  Updated: '2023-11-06T09:05:06Z'
- BGP Intermediate AS: null
  BGP Origin AS: 396569
  BGP Site Identifier: ''
  Country: US
  Created: '2023-11-06T09:05:06Z'
  ID: sdja1g
  IPv4: true
  IPv6: true
  Identifiers:
  - a4.us-chi.root
  - n4.us-chi.root
  Instances: 1
  Latitude: 41.8781136
  Longitude: -87.6297982
  Status: ''
  Town: Chicago
  Type: Global
  Updated: '2023-11-06T09:05:06Z'
- BGP Intermediate AS: null
  BGP Origin AS: 396570
  BGP Site Identifier: ''
  Country: US
  Created: '2023-11-06T09:05:06Z'
  ID: dXjDWj
  IPv4: true
  IPv6: true
  Identifiers:
  - a6.us-chi.root
  - n6.us-chi.root
  Instances: 1
  Latitude: 41.8781136
  Longitude: -87.6297982
  Status: ''
  Town: Chicago
  Type: Local
  Updated: '2023-11-06T09:05:06Z'
- BGP Intermediate AS: null
  BGP Origin AS: 397197
  BGP Site Identifier: ''
  Country: DE
  Created: '2023-11-06T09:05:06Z'
  ID: XYsHCm
  IPv4: true
  IPv6: true
  Identifiers:
  - a4.de-fra.root
  - n4.de-fra.root
  Instances: 1
  Latitude: 50.1109221
  Longitude: 8.6821267
  Status: ''
  Town: Frankfurt
  Type: Local
  Updated: '2023-11-06T09:05:06Z'
- BGP Intermediate AS: null
  BGP Origin AS: 36625
  BGP Site Identifier: ''
  Country: DE
  Created: '2023-11-06T09:05:06Z'
  ID: XxSl8J
  IPv4: true
  IPv6: true
  Identifiers:
  - a1.de-fra.root
  - n1.de-fra.root
  Instances: 1
  Latitude: 50.1109221
  Longitude: 8.6821267
  Status: ''
  Town: Frankfurt
  Type: Global
  Updated: '2023-11-06T09:05:06Z'
- BGP Intermediate AS: null
  BGP Origin AS: 396560
  BGP Site Identifier: ''
  Country: DE
  Created: '2023-11-06T09:05:06Z'
  ID: 1d0CVs
  IPv4: true
  IPv6: true
  Identifiers:
  - a1.de-fra.root
  - n1.de-fra.root
  Instances: 1
  Latitude: 50.1109221
  Longitude: 8.6821267
  Status: ''
  Town: Frankfurt
  Type: Global
  Updated: '2023-11-06T09:05:06Z'
- BGP Intermediate AS: null
  BGP Origin AS: 397209
  BGP Site Identifier: ''
  Country: DE
  Created: '2023-11-06T09:05:06Z'
  ID: gt6TqY
  IPv4: true
  IPv6: true
  Identifiers:
  - a6.de-fra.root
  - n6.de-fra.root
  Instances: 1
  Latitude: 50.1109221
  Longitude: 8.6821267
  Status: ''
  Town: Frankfurt
  Type: Local
  Updated: '2023-11-06T09:05:06Z'
- BGP Intermediate AS: null
  BGP Origin AS: 397196
  BGP Site Identifier: ''
  Country: DE
  Created: '2023-11-06T09:05:06Z'
  ID: ZSkfB2
  IPv4: true
  IPv6: true
  Identifiers:
  - a3.de-fra.root
  - n3.de-fra.root
  Instances: 1
  Latitude: 50.1109221
  Longitude: 8.6821267
  Status: ''
  Town: Frankfurt
  Type: Global
  Updated: '2023-11-06T09:05:06Z'
- BGP Intermediate AS: null
  BGP Origin AS: 396710
  BGP Site Identifier: ''
  Country: CN
  Created: '2023-11-06T09:05:06Z'
  ID: 97km4U
  IPv4: true
  IPv6: true
  Identifiers:
  - a8.cn-bjs.root
  - n8.cn-bjs.root
  Instances: 1
  Latitude: 23.1301964
  Longitude: 113.2592945
  Status: ''
  Town: Guangzhou
  Type: Global
  Updated: '2023-11-06T09:05:06Z'
- BGP Intermediate AS: null
  BGP Origin AS: 396550
  BGP Site Identifier: ''
  Country: GB
  Created: '2023-11-06T09:05:06Z'
  ID: mOtf6K
  IPv4: true
  IPv6: true
  Identifiers:
  - a9.gb-lon.root
  - n9.gb-lon.root
  Instances: 1
  Latitude: 51.5073509
  Longitude: -0.1277583
  Status: ''
  Town: London
  Type: Local
  Updated: '2023-11-06T09:05:06Z'
- BGP Intermediate AS: null
  BGP Origin AS: 396551
  BGP Site Identifier: ''
  Country: GB
  Created: '2023-11-06T09:05:06Z'
  ID: HtXHKB
  IPv4: true
  IPv6: true
  Identifiers:
  - a1.gb-lon.root
  - n1.gb-lon.root
  Instances: 1
  Latitude: 51.5073509
  Longitude: -0.1277583
  Status: ''
  Town: London
  Type: Global
  Updated: '2023-11-06T09:05:06Z'
- BGP Intermediate AS: null
  BGP Origin AS: 396591
  BGP Site Identifier: ''
  Country: GB
  Created: '2023-11-06T09:05:06Z'
  ID: cxnIiu
  IPv4: true
  IPv6: true
  Identifiers:
  - a1.gb-lon.root
  - n1.gb-lon.root
  Instances: 1
  Latitude: 51.5073509
  Longitude: -0.1277583
  Status: ''
  Town: London
  Type: Global
  Updated: '2023-11-06T09:05:06Z'
- BGP Intermediate AS: null
  BGP Origin AS: 396549
  BGP Site Identifier: ''
  Country: GB
  Created: '2023-11-06T09:05:06Z'
  ID: ZHA28K
  IPv4: true
  IPv6: true
  Identifiers:
  - a8.gb-lon.root
  - n8.gb-lon.root
  Instances: 1
  Latitude: 51.5073509
  Longitude: -0.1277583
  Status: ''
  Town: London
  Type: Local
  Updated: '2023-11-06T09:05:06Z'
- BGP Intermediate AS: null
  BGP Origin AS: 396580
  BGP Site Identifier: ''
  Country: US
  Created: '2023-11-06T09:05:06Z'
  ID: GdR4Ee
  IPv4: true
  IPv6: true
  Identifiers:
  - a1.us-lax.root
  - n1.us-lax.root
  Instances: 1
  Latitude: 34.0522342
  Longitude: -118.2436849
  Status: ''
  Town: Los Angeles
  Type: Global
  Updated: '2023-11-06T09:05:06Z'
- BGP Intermediate AS: null
  BGP Origin AS: 396608
  BGP Site Identifier: ''
  Country: US
  Created: '2023-11-06T09:05:06Z'
  ID: su1LG7
  IPv4: true
  IPv6: true
  Identifiers:
  - a1a.us-lax.root
  - n1a.us-lax.root
  Instances: 1
  Latitude: 34.0522342
  Longitude: -118.2436849
  Status: ''
  Town: Los Angeles
  Type: Global
  Updated: '2023-11-06T09:05:06Z'
- BGP Intermediate AS: null
  BGP Origin AS: 396545
  BGP Site Identifier: ''
  Country: US
  Created: '2023-11-06T09:05:06Z'
  ID: EDQoB6
  IPv4: true
  IPv6: true
  Identifiers:
  - a8.us-lax.root
  - n8.us-lax.root
  Instances: 1
  Latitude: 34.0522342
  Longitude: -118.2436849
  Status: ''
  Town: Los Angeles
  Type: Local
  Updated: '2023-11-06T09:05:06Z'
- BGP Intermediate AS: null
  BGP Origin AS: 396544
  BGP Site Identifier: ''
  Country: US
  Created: '2023-11-06T09:05:06Z'
  ID: eqcIs6
  IPv4: true
  IPv6: true
  Identifiers:
  - a7.us-lax.root
  - n7.us-lax.root
  Instances: 1
  Latitude: 34.0522342
  Longitude: -118.2436849
  Status: ''
  Town: Los Angeles
  Type: Local
  Updated: '2023-11-06T09:05:06Z'
- BGP Intermediate AS: null
  BGP Origin AS: 396543
  BGP Site Identifier: ''
  Country: US
  Created: '2023-11-06T09:05:06Z'
  ID: yuGLcw
  IPv4: true
  IPv6: true
  Identifiers:
  - a6.us-lax.root
  - n6.us-lax.root
  Instances: 1
  Latitude: 34.0522342
  Longitude: -118.2436849
  Status: ''
  Town: Los Angeles
  Type: Global
  Updated: '2023-11-06T09:05:06Z'
- BGP Intermediate AS: null
  BGP Origin AS: 396583
  BGP Site Identifier: ''
  Country: US
  Created: '2023-11-06T09:05:06Z'
  ID: 6bkvru
  IPv4: true
  IPv6: true
  Identifiers:
  - a1.us-mnz.root
  - n1.us-mnz.root
  Instances: 1
  Latitude: 38.7509488
  Longitude: -77.4752667
  Status: ''
  Town: Manassas
  Type: Local
  Updated: '2023-11-06T09:05:06Z'
- BGP Intermediate AS: null
  BGP Origin AS: 396599
  BGP Site Identifier: ''
  Country: FR
  Created: '2023-11-06T09:05:06Z'
  ID: jlznka
  IPv4: true
  IPv6: true
  Identifiers:
  - a2.fr-mrs.root
  - n2.fr-mrs.root
  Instances: 1
  Latitude: 43.2961743
  Longitude: 5.3699525
  Status: ''
  Town: Marseille
  Type: Global
  Updated: '2023-11-06T09:05:06Z'
- BGP Intermediate AS: null
  BGP Origin AS: 396600
  BGP Site Identifier: ''
  Country: FR
  Created: '2023-11-06T09:05:06Z'
  ID: HCL5T9
  IPv4: true
  IPv6: true
  Identifiers:
  - a3.fr-mrs.root
  - n3.fr-mrs.root
  Instances: 1
  Latitude: 43.2961743
  Longitude: 5.3699525
  Status: ''
  Town: Marseille
  Type: Global
  Updated: '2023-11-06T09:05:06Z'
- BGP Intermediate AS: null
  BGP Origin AS: 396579
  BGP Site Identifier: ''
  Country: US
  Created: '2023-11-06T09:05:06Z'
  ID: w0fh6D
  IPv4: true
  IPv6: true
  Identifiers:
  - a1.us-mia.root
  - n1.us-mia.root
  Instances: 1
  Latitude: 25.7616798
  Longitude: -80.1917902
  Status: ''
  Town: Miami
  Type: Global
  Updated: '2023-11-06T09:05:06Z'
- BGP Intermediate AS: null
  BGP Origin AS: 396555
  BGP Site Identifier: ''
  Country: US
  Created: '2023-11-06T09:05:06Z'
  ID: MBzHeD
  IPv4: true
  IPv6: true
  Identifiers:
  - a5.us-mia.root
  - n5.us-mia.root
  Instances: 1
  Latitude: 25.7616798
  Longitude: -80.1917902
  Status: ''
  Town: Miami
  Type: Local
  Updated: '2023-11-06T09:05:06Z'
- BGP Intermediate AS: null
  BGP Origin AS: 396577
  BGP Site Identifier: ''
  Country: US
  Created: '2023-11-06T09:05:06Z'
  ID: st3kyc
  IPv4: true
  IPv6: true
  Identifiers:
  - a6.us-mia.root
  - n6.us-mia.root
  Instances: 1
  Latitude: 25.7616798
  Longitude: -80.1917902
  Status: ''
  Town: Miami
  Type: Global
  Updated: '2023-11-06T09:05:06Z'
- BGP Intermediate AS: null
  BGP Origin AS: 19836
  BGP Site Identifier: ''
  Country: US
  Created: '2023-11-06T09:05:06Z'
  ID: czGL58
  IPv4: true
  IPv6: true
  Identifiers:
  - a1.us-nyc.root
  - n1.us-nyc.root
  Instances: 1
  Latitude: 40.7127837
  Longitude: -74.0059413
  Status: ''
  Town: New York
  Type: Local
  Updated: '2023-11-06T09:05:06Z'
- BGP Intermediate AS: null
  BGP Origin AS: 396557
  BGP Site Identifier: ''
  Country: US
  Created: '2023-11-06T09:05:06Z'
  ID: SUYST5
  IPv4: true
  IPv6: true
  Identifiers:
  - a5.us-nyc.root
  - n5.us-nyc.root
  Instances: 1
  Latitude: 40.7127837
  Longitude: -74.0059413
  Status: ''
  Town: New York
  Type: Global
  Updated: '2023-11-06T09:05:06Z'
- BGP Intermediate AS: null
  BGP Origin AS: 396559
  BGP Site Identifier: ''
  Country: US
  Created: '2023-11-06T09:05:06Z'
  ID: GE47Wg
  IPv4: true
  IPv6: true
  Identifiers:
  - a7.us-nyc.root
  - n7.us-nyc.root
  Instances: 1
  Latitude: 40.7127837
  Longitude: -74.0059413
  Status: ''
  Town: New York
  Type: Local
  Updated: '2023-11-06T09:05:06Z'
- BGP Intermediate AS: null
  BGP Origin AS: 396547
  BGP Site Identifier: ''
  Country: FR
  Created: '2023-11-06T09:05:06Z'
  ID: 93OBNS
  IPv4: true
  IPv6: true
  Identifiers:
  - a6.fr-par.root
  - n6.fr-par.root
  Instances: 1
  Latitude: 48.856614
  Longitude: 2.3522219
  Status: ''
  Town: Paris
  Type: Global
  Updated: '2023-11-06T09:05:06Z'
- BGP Intermediate AS: null
  BGP Origin AS: 21313
  BGP Site Identifier: ''
  Country: FR
  Created: '2023-11-06T09:05:06Z'
  ID: 97jAy5
  IPv4: true
  IPv6: true
  Identifiers:
  - a1.fr-par.root
  - n1.fr-par.root
  Instances: 1
  Latitude: 48.856614
  Longitude: 2.3522219
  Status: ''
  Town: Paris
  Type: Global
  Updated: '2023-11-06T09:05:06Z'
- BGP Intermediate AS: null
  BGP Origin AS: 20172
  BGP Site Identifier: ''
  Country: US
  Created: '2023-11-06T09:05:07Z'
  ID: xU2eCQ
  IPv4: true
  IPv6: true
  Identifiers:
  - a1.us-plz.root
  - n1.us-plz.root
  Instances: 1
  Latitude: 33.0198431
  Longitude: -96.6988856
  Status: ''
  Town: Plano
  Type: Global
  Updated: '2023-11-06T09:05:07Z'
- BGP Intermediate AS: null
  BGP Origin AS: 396540
  BGP Site Identifier: ''
  Country: US
  Created: '2023-11-06T09:05:06Z'
  ID: zHfiug
  IPv4: true
  IPv6: true
  Identifiers:
  - a7.us-plz.root
  - n7.us-plz.root
  Instances: 1
  Latitude: 33.0198431
  Longitude: -96.6988856
  Status: ''
  Town: Plano
  Type: Local
  Updated: '2023-11-06T09:05:06Z'
- BGP Intermediate AS: null
  BGP Origin AS: 396542
  BGP Site Identifier: ''
  Country: US
  Created: '2023-11-06T09:05:06Z'
  ID: hBnFhl
  IPv4: true
  IPv6: true
  Identifiers:
  - a9.us-plz.root
  - n9.us-plz.root
  Instances: 1
  Latitude: 33.0198431
  Longitude: -96.6988856
  Status: ''
  Town: Plano
  Type: Global
  Updated: '2023-11-06T09:05:06Z'
- BGP Intermediate AS: null
  BGP Origin AS: 396541
  BGP Site Identifier: ''
  Country: US
  Created: '2023-11-06T09:05:06Z'
  ID: VpxP0K
  IPv4: true
  IPv6: true
  Identifiers:
  - a8.us-plz.root
  - n8.us-plz.root
  Instances: 1
  Latitude: 33.0198431
  Longitude: -96.6988856
  Status: ''
  Town: Plano
  Type: Local
  Updated: '2023-11-06T09:05:06Z'
- BGP Intermediate AS: null
  BGP Origin AS: 396571
  BGP Site Identifier: ''
  Country: US
  Created: '2023-11-06T09:05:07Z'
  ID: 0vdWW0
  IPv4: true
  IPv6: true
  Identifiers:
  - a1.us-sjc.root
  - n1.us-sjc.root
  Instances: 1
  Latitude: 37.3382082
  Longitude: -121.8863286
  Status: ''
  Town: San Jose
  Type: Global
  Updated: '2023-11-06T09:05:07Z'
- BGP Intermediate AS: null
  BGP Origin AS: 396576
  BGP Site Identifier: ''
  Country: US
  Created: '2023-11-06T09:05:07Z'
  ID: 8my3do
  IPv4: true
  IPv6: true
  Identifiers:
  - a8.us-sjc.root
  - n8.us-sjc.root
  Instances: 1
  Latitude: 37.3382082
  Longitude: -121.8863286
  Status: ''
  Town: San Jose
  Type: Local
  Updated: '2023-11-06T09:05:07Z'
- BGP Intermediate AS: null
  BGP Origin AS: 36617
  BGP Site Identifier: ''
  Country: US
  Created: '2023-11-06T09:05:07Z'
  ID: 2UaLjr
  IPv4: true
  IPv6: true
  Identifiers:
  - a1.us-sjc.root
  - n1.us-sjc.root
  Instances: 1
  Latitude: 37.3382082
  Longitude: -121.8863286
  Status: ''
  Town: San Jose
  Type: Global
  Updated: '2023-11-06T09:05:07Z'
- BGP Intermediate AS: null
  BGP Origin AS: 397206
  BGP Site Identifier: ''
  Country: US
  Created: '2023-11-06T09:05:07Z'
  ID: pNMMPz
  IPv4: true
  IPv6: true
  Identifiers:
  - a4.us-sjc.root
  - n4.us-sjc.root
  Instances: 1
  Latitude: 37.3382082
  Longitude: -121.8863286
  Status: ''
  Town: San Jose
  Type: Global
  Updated: '2023-11-06T09:05:07Z'
- BGP Intermediate AS: null
  BGP Origin AS: 396574
  BGP Site Identifier: ''
  Country: US
  Created: '2023-11-06T09:05:07Z'
  ID: djcQx9
  IPv4: true
  IPv6: true
  Identifiers:
  - a6.us-sea.root
  - n6.us-sea.root
  Instances: 1
  Latitude: 47.6062095
  Longitude: -122.3320708
  Status: ''
  Town: Seattle
  Type: Local
  Updated: '2023-11-06T09:05:07Z'
- BGP Intermediate AS: null
  BGP Origin AS: 396575
  BGP Site Identifier: ''
  Country: US
  Created: '2023-11-06T09:05:07Z'
  ID: pRqKRt
  IPv4: true
  IPv6: true
  Identifiers:
  - a7.us-sea.root
  - n7.us-sea.root
  Instances: 1
  Latitude: 47.6062095
  Longitude: -122.3320708
  Status: ''
  Town: Seattle
  Type: Local
  Updated: '2023-11-06T09:05:07Z'
- BGP Intermediate AS: null
  BGP Origin AS: 397200
  BGP Site Identifier: ''
  Country: US
  Created: '2023-11-06T09:05:07Z'
  ID: mTbF7h
  IPv4: true
  IPv6: true
  Identifiers:
  - a3.us-sea.root
  - n3.us-sea.root
  Instances: 1
  Latitude: 47.6062095
  Longitude: -122.3320708
  Status: ''
  Town: Seattle
  Type: Global
  Updated: '2023-11-06T09:05:07Z'
- BGP Intermediate AS: null
  BGP Origin AS: 397211
  BGP Site Identifier: ''
  Country: SG
  Created: '2023-11-06T09:05:06Z'
  ID: VEPIFb
  IPv4: true
  IPv6: true
  Identifiers:
  - a1a.sg-sin.root
  - n1a.sg-sin.root
  Instances: 1
  Latitude: 1.2800945
  Longitude: 103.8509491
  Status: ''
  Town: Singapore
  Type: Global
  Updated: '2023-11-06T09:05:06Z'
- BGP Intermediate AS: null
  BGP Origin AS: 396827
  BGP Site Identifier: ''
  Country: SG
  Created: '2023-11-06T09:05:06Z'
  ID: U1py5W
  IPv4: true
  IPv6: true
  Identifiers:
  - a6.sg-sin.root
  - n6.sg-sin.root
  Instances: 1
  Latitude: 1.2800945
  Longitude: 103.8509491
  Status: ''
  Town: Singapore
  Type: Local
  Updated: '2023-11-06T09:05:06Z'
- BGP Intermediate AS: null
  BGP Origin AS: 396826
  BGP Site Identifier: ''
  Country: SG
  Created: '2023-11-06T09:05:06Z'
  ID: Zzd6Qp
  IPv4: true
  IPv6: true
  Identifiers:
  - a5.sg-sin.root
  - n5.sg-sin.root
  Instances: 1
  Latitude: 1.2800945
  Longitude: 103.8509491
  Status: ''
  Town: Singapore
  Type: Global
  Updated: '2023-11-06T09:05:06Z'
- BGP Intermediate AS: null
  BGP Origin AS: 396603
  BGP Site Identifier: ''
  Country: SE
  Created: '2023-11-06T09:05:06Z'
  ID: UdB9Z4
  IPv4: true
  IPv6: true
  Identifiers:
  - a3.se-sto.root
  - n3.se-sto.root
  Instances: 1
  Latitude: 59.3293235
  Longitude: 18.0685808
  Status: ''
  Town: Stockholm
  Type: Local
  Updated: '2023-11-06T09:05:06Z'
- BGP Intermediate AS: null
  BGP Origin AS: 25485
  BGP Site Identifier: ''
  Country: SE
  Created: '2023-11-06T09:05:06Z'
  ID: 1JrhjQ
  IPv4: true
  IPv6: true
  Identifiers:
  - a1.se-sto.root
  - n1.se-sto.root
  Instances: 1
  Latitude: 59.3293235
  Longitude: 18.0685808
  Status: ''
  Town: Stockholm
  Type: Global
  Updated: '2023-11-06T09:05:06Z'
- BGP Intermediate AS: null
  BGP Origin AS: 396602
  BGP Site Identifier: ''
  Country: SE
  Created: '2023-11-06T09:05:06Z'
  ID: 0Cfz5F
  IPv4: true
  IPv6: true
  Identifiers:
  - a2.se-sto.root
  - n2.se-sto.root
  Instances: 1
  Latitude: 59.3293235
  Longitude: 18.0685808
  Status: ''
  Town: Stockholm
  Type: Global
  Updated: '2023-11-06T09:05:06Z'
- BGP Intermediate AS: null
  BGP Origin AS: 36623
  BGP Site Identifier: ''
  Country: JP
  Created: '2023-11-06T09:05:06Z'
  ID: KCnG8e
  IPv4: true
  IPv6: true
  Identifiers:
  - a5.jp-tyo.root
  - n5.jp-tyo.root
  Instances: 1
  Latitude: 35.6894875
  Longitude: 139.6917064
  Status: ''
  Town: Tokyo
  Type: Global
  Updated: '2023-11-06T09:05:06Z'
- BGP Intermediate AS: null
  BGP Origin AS: 396605
  BGP Site Identifier: ''
  Country: JP
  Created: '2023-11-06T09:05:06Z'
  ID: oGvsCu
  IPv4: true
  IPv6: true
  Identifiers:
  - a1a.jp-tyo.root
  - n1a.jp-tyo.root
  Instances: 1
  Latitude: 35.6894875
  Longitude: 139.6917064
  Status: ''
  Town: Tokyo
  Type: Global
  Updated: '2023-11-06T09:05:06Z'
- BGP Intermediate AS: null
  BGP Origin AS: 397199
  BGP Site Identifier: ''
  Country: JP
  Created: '2023-11-06T09:05:06Z'
  ID: s55XfW
  IPv4: true
  IPv6: true
  Identifiers:
  - a3.jp-tyo.root
  - n3.jp-tyo.root
  Instances: 1
  Latitude: 35.6894875
  Longitude: 139.6917064
  Status: ''
  Town: Tokyo
  Type: Global
  Updated: '2023-11-06T09:05:06Z'
- BGP Intermediate AS: null
  BGP Origin AS: 36622
  BGP Site Identifier: ''
  Country: JP
  Created: '2023-11-06T09:05:06Z'
  ID: ajpK5v
  IPv4: true
  IPv6: true
  Identifiers:
  - a6.jp-tyo.root
  - n6.jp-tyo.root
  Instances: 1
  Latitude: 35.6894875
  Longitude: 139.6917064
  Status: ''
  Town: Tokyo
  Type: Local
  Updated: '2023-11-06T09:05:06Z'
- BGP Intermediate AS: null
  BGP Origin AS: 396563
  BGP Site Identifier: ''
  Country: US
  Created: '2023-11-06T09:05:07Z'
  ID: iNkW11
  IPv4: true
  IPv6: true
  Identifiers:
  - a2.us-was.root
  - n2.us-was.root
  Instances: 1
  Latitude: 38.8950368
  Longitude: -77.0365427
  Status: ''
  Town: Washington DC
  Type: Global
  Updated: '2023-11-06T09:05:07Z'
Statistics: https://a.root-servers.org/metrics/index.html
Updated: '2023-11-06T09:05:06Z'
