ASN: 7500
Contact Email: as7500@nspixp.wide.ad.jp
Homepage: http://m.root-servers.org/
IPv4: 202.12.27.33
IPv6: 2001:dc3::35
Identifier Naming Convention: ''
Operator: WIDE Project
Peering Policy: http://as7500.peeringdb.com/
RSSAC: https://rssac.wide.ad.jp/rssac002-metrics/
Sites:
- Country: TH
  IPv4: true
  IPv6: true
  Identifiers:
  - M-BKK-1
  Instances: 1
  Latitude: 13.7563309
  Longitude: 100.5017651
  Town: Bangkok
  Type: Local
- Country: AU
  IPv4: true
  IPv6: true
  Identifiers:
  - M-BNE-1
  Instances: 1
  Latitude: -27.44525
  Longitude: 153.02749
  Town: Brisbane
  Type: Local
- Country: GU
  IPv4: true
  IPv6: true
  Identifiers:
  - M-GUM-1
  Instances: 1
  Latitude: 13.483795
  Longitude: 144.793578
  Town: Guam
  Type: Local
- Country: VN
  IPv4: true
  IPv6: true
  Identifiers:
  - M-HAN-1
  Instances: 1
  Latitude: 21.01849
  Longitude: 105.85074
  Town: Hanoi
  Type: Local
- Country: MY
  IPv4: true
  IPv6: true
  Identifiers:
  - M-KUL-1
  Instances: 1
  Latitude: 2.74558
  Longitude: 101.709999
  Town: Kuala Lumpur
  Type: Local
- Country: JP
  IPv4: true
  IPv6: true
  Identifiers:
  - M-KIX-1
  - M-KIX-2
  - M-KIX-3
  Instances: 1
  Latitude: 34.6937378
  Longitude: 135.5021651
  Town: Osaka
  Type: Global
- Country: FR
  IPv4: true
  IPv6: true
  Identifiers:
  - M-CDG-1
  - M-CDG-2
  - M-CDG-3
  - M-CDG-4
  - M-ORY-1
  - M-ORY-2
  - M-ORY-3
  - M-ORY-4
  Instances: 2
  Latitude: 48.856614
  Longitude: 2.3522219
  Town: Paris
  Type: Global
- Country: US
  IPv4: true
  IPv6: true
  Identifiers:
  - M-SFO-1
  - M-SFO-2
  - M-SFO-3
  - M-SFO-4
  - M-SJC-1
  - M-SJC-2
  - M-SJC-3
  - M-SJC-4
  Instances: 2
  Latitude: 37.7749295
  Longitude: -122.4194155
  Town: San Francisco
  Type: Global
- Country: KR
  IPv4: true
  IPv6: true
  Identifiers:
  - M-ICN-1
  - M-ICN-2
  - M-ICN-3
  Instances: 1
  Latitude: 37.566535
  Longitude: 126.9779692
  Town: Seoul
  Type: Global
- Country: JP
  IPv4: true
  IPv6: true
  Identifiers:
  - M-NRT-DIXIE-1
  - M-NRT-DIXIE-2
  - M-NRT-DIXIE-3
  - M-NRT-DIXIE-4
  - M-NRT-JPIX-1
  - M-NRT-JPIX-2
  - M-NRT-JPIX-3
  - M-NRT-JPIX-4
  - M-NRT-JPNAP-1
  - M-NRT-JPNAP-2
  - M-NRT-JPNAP-3
  - M-NRT-JPNAP-4
  Instances: 3
  Latitude: 35.6894875
  Longitude: 139.6917064
  Town: Tokyo
  Type: Global
Statistics: ''
