ASN: '3557'
Contact Email: f-root@isc.org
Homepage: http://f.root-servers.org/
IPv4: 192.5.5.241
IPv6: 2001:500:2f::f
Identifier Naming Convention: ''
Instances:
- Country: NL
  IPv4: 'Yes'
  IPv6: 'Yes'
  Latitude: '52.3702157'
  Longitude: '4.8951679'
  Sites: 1
  Town: Amsterdam
  Type: Global
- Country: NL
  IPv4: 'Yes'
  IPv6: 'Yes'
  Latitude: '52.30907'
  Longitude: '4.763385'
  Sites: 1
  Town: Amsterdam
  Type: Local
- Country: US
  IPv4: 'Yes'
  IPv6: 'Yes'
  Latitude: '38.95315'
  Longitude: '-77.44774'
  Sites: 1
  Town: Ashburn
  Type: Local
- Country: GR
  IPv4: 'Yes'
  IPv6: 'Yes'
  Latitude: '37.93635'
  Longitude: '23.946486'
  Sites: 1
  Town: Athens
  Type: Local
- Country: US
  IPv4: 'Yes'
  IPv6: 'Yes'
  Latitude: '33.7489954'
  Longitude: '-84.3879824'
  Sites: 1
  State: GA
  Town: Atlanta
  Type: Global
- Country: US
  IPv4: 'Yes'
  IPv6: 'Yes'
  Latitude: '33.640068'
  Longitude: '-84.44403'
  Sites: 1
  Town: Atlanta
  Type: Local
- Country: NZ
  IPv4: 'Yes'
  IPv6: 'Yes'
  Latitude: '-36.8484597'
  Longitude: '174.7633315'
  Sites: 1
  Town: Auckland
  Type: Local
- Country: NZ
  IPv4: 'Yes'
  IPv6: 'Yes'
  Latitude: '-37.004787'
  Longitude: '174.78352'
  Sites: 1
  Town: Auckland
  Type: Local
- Country: TH
  IPv4: 'Yes'
  IPv6: 'Yes'
  Latitude: '13.693062'
  Longitude: '100.752045'
  Sites: 2
  Town: Bangkok
  Type: Local
- Country: ES
  IPv4: 'Yes'
  IPv6: 'Yes'
  Latitude: '41.3850639'
  Longitude: '2.1734035'
  Sites: 1
  Town: Barcelona
  Type: Local
- Country: ES
  IPv4: 'Yes'
  IPv6: 'Yes'
  Latitude: '41.390205'
  Longitude: '2.154007'
  Sites: 1
  Town: Barcelona
  Type: Local
- Country: CN
  IPv4: 'Yes'
  IPv6: 'Yes'
  Latitude: '39.90403'
  Longitude: '116.407526'
  Sites: 1
  Town: Beijing
  Type: Local
- Country: DE
  IPv4: 'Yes'
  IPv6: 'Yes'
  Latitude: '52.553944'
  Longitude: '13.291722'
  Sites: 1
  Town: Berlin
  Type: Local
- Country: US
  IPv4: 'Yes'
  IPv6: 'Yes'
  Latitude: '42.3600825'
  Longitude: '-71.0588801'
  Sites: 1
  Town: Boston
  Type: Local
- Country: AU
  IPv4: 'Yes'
  IPv6: 'Yes'
  Latitude: '-27.4710107'
  Longitude: '153.0234489'
  Sites: 1
  Town: Brisbane
  Type: Local
- Country: AU
  IPv4: 'Yes'
  IPv6: 'Yes'
  Latitude: '-27.4697707'
  Longitude: '153.0251235'
  Sites: 1
  Town: Brisbane
  Type: Local
- Country: BE
  IPv4: 'Yes'
  IPv6: 'Yes'
  Latitude: '50.89717'
  Longitude: '4.483602'
  Sites: 1
  Town: Brussels
  Type: Local
- Country: RO
  IPv4: 'Yes'
  IPv6: 'Yes'
  Latitude: '44.571156'
  Longitude: '26.077063'
  Sites: 1
  Town: Bucharest
  Type: Local
- Country: AR
  IPv4: 'Yes'
  IPv6: 'No'
  Latitude: '-34.6037232'
  Longitude: '-58.3815931'
  Sites: 1
  Town: Buenos Aires
  Type: Local
- Country: AR
  IPv4: 'Yes'
  IPv6: 'Yes'
  Latitude: '-34.81273'
  Longitude: '-58.539833'
  Sites: 1
  Town: Buenos Aires
  Type: Local
- Country: EG
  IPv4: 'Yes'
  IPv6: 'Yes'
  Latitude: '30.120106'
  Longitude: '31.40647'
  Sites: 1
  Town: Cairo
  Type: Local
- Country: VE
  IPv4: 'Yes'
  IPv6: 'Yes'
  Latitude: '10.491016'
  Longitude: '-66.902061'
  Sites: 1
  Town: Caracas
  Type: Local
- Country: IN
  IPv4: 'Yes'
  IPv6: 'Yes'
  Latitude: '13.0524139'
  Longitude: '80.2508246'
  Sites: 1
  Town: Chennai
  Type: Local
- Country: IN
  IPv4: 'Yes'
  IPv6: 'Yes'
  Latitude: '12.982267'
  Longitude: '80.16378'
  Sites: 1
  Town: Chennai
  Type: Local
- Country: US
  IPv4: 'Yes'
  IPv6: 'Yes'
  Latitude: '41.8781136'
  Longitude: '-87.6297982'
  Sites: 1
  State: IL
  Town: Chicago
  Type: Global
- Country: US
  IPv4: 'Yes'
  IPv6: 'Yes'
  Latitude: '41.976913'
  Longitude: '-87.90488'
  Sites: 1
  Town: Chicago
  Type: Local
- Country: DK
  IPv4: 'Yes'
  IPv6: 'Yes'
  Latitude: '55.62905'
  Longitude: '12.647601'
  Sites: 1
  Town: Copenhagen
  Type: Local
- Country: US
  IPv4: 'Yes'
  IPv6: 'Yes'
  Latitude: '32.89746'
  Longitude: '-97.036125'
  Sites: 1
  Town: Dallas
  Type: Local
- Country: TZ
  IPv4: 'Yes'
  IPv6: 'Yes'
  Latitude: '-6.822921'
  Longitude: '39.269661'
  Sites: 1
  Town: Dar es Salaam
  Type: Local
- Country: US
  IPv4: 'Yes'
  IPv6: 'Yes'
  Latitude: '39.8561'
  Longitude: '-104.6737'
  Sites: 1
  Town: Denver
  Type: Local
- Country: BD
  IPv4: 'Yes'
  IPv6: 'Yes'
  Latitude: '23.709921'
  Longitude: '90.407143'
  Sites: 1
  Town: Dhaka
  Type: Local
- Country: QA
  IPv4: 'Yes'
  IPv6: 'Yes'
  Latitude: '25.267569'
  Longitude: '51.558067'
  Sites: 1
  Town: Doha
  Type: Local
- Country: AE
  IPv4: 'Yes'
  IPv6: 'No'
  Latitude: '25.271139'
  Longitude: '55.307485'
  Sites: 1
  Town: Dubai
  Type: Local
- Country: AE
  IPv4: 'Yes'
  IPv6: 'Yes'
  Latitude: '25.248665'
  Longitude: '55.352917'
  Sites: 1
  Town: Dubai
  Type: Local
- Country: IE
  IPv4: 'Yes'
  IPv6: 'Yes'
  Latitude: '53.42728'
  Longitude: '-6.24357'
  Sites: 1
  Town: Dublin
  Type: Local
- Country: DE
  IPv4: 'Yes'
  IPv6: 'Yes'
  Latitude: '51.278328'
  Longitude: '6.76558'
  Sites: 1
  Town: Dusseldorf
  Type: Local
- Country: DE
  IPv4: 'Yes'
  IPv6: 'Yes'
  Latitude: '50.1109221'
  Longitude: '8.6821267'
  Sites: 1
  Town: Frankfurt
  Type: Local
- Country: DE
  IPv4: 'Yes'
  IPv6: 'Yes'
  Latitude: '50.050735'
  Longitude: '8.570773'
  Sites: 1
  Town: Frankfurt
  Type: Local
- Country: DE
  IPv4: 'Yes'
  IPv6: 'Yes'
  Latitude: '53.63128'
  Longitude: '10.006414'
  Sites: 1
  Town: Hamburg
  Type: Local
- Country: FI
  IPv4: 'Yes'
  IPv6: 'Yes'
  Latitude: '60.31795'
  Longitude: '24.96645'
  Sites: 1
  Town: Helsinki
  Type: Local
- Country: HK
  IPv4: 'Yes'
  IPv6: 'Yes'
  Latitude: '22.396428'
  Longitude: '114.109497'
  Sites: 1
  Town: Hong Kong
  Type: Local
- Country: HK
  IPv4: 'Yes'
  IPv6: 'Yes'
  Latitude: '22.315248'
  Longitude: '113.93649'
  Sites: 1
  Town: Hong Kong
  Type: Local
- Country: ID
  IPv4: 'Yes'
  IPv6: 'Yes'
  Latitude: '-6.211544'
  Longitude: '106.845172'
  Sites: 1
  Town: Jakarta
  Type: Local
- Country: ZA
  IPv4: 'Yes'
  IPv6: 'Yes'
  Latitude: '-26.2041028'
  Longitude: '28.0473051'
  Sites: 1
  Town: Johannesburg
  Type: Local
- Country: ZA
  IPv4: 'Yes'
  IPv6: 'Yes'
  Latitude: '-26.132664'
  Longitude: '28.231314'
  Sites: 1
  Town: Johannesburg
  Type: Local
- Country: PK
  IPv4: 'Yes'
  IPv6: 'No'
  Latitude: '24.893379'
  Longitude: '67.0280609'
  Sites: 1
  Town: Karachi
  Type: Local
- Country: UA
  IPv4: 'Yes'
  IPv6: 'Yes'
  Latitude: '50.341244'
  Longitude: '30.895206'
  Sites: 1
  Town: Kiev
  Type: Local
- Country: MY
  IPv4: 'Yes'
  IPv6: 'Yes'
  Latitude: '2.745580'
  Longitude: '101.709999'
  Sites: 1
  Town: Kuala Lumpur
  Type: Local
- Country: MY
  IPv4: 'Yes'
  IPv6: 'Yes'
  Latitude: '2.755672'
  Longitude: '101.70539'
  Sites: 1
  Town: Kuala Lumpur
  Type: Local
- Country: KW
  IPv4: 'Yes'
  IPv6: 'Yes'
  Latitude: '29.240116'
  Longitude: '47.971252'
  Sites: 1
  Town: Kuwait City
  Type: Local
- Country: UA
  IPv4: 'Yes'
  IPv6: 'Yes'
  Latitude: '50.4501'
  Longitude: '30.5234'
  Sites: 1
  Town: Kyiv
  Type: Local
- Country: NG
  IPv4: 'Yes'
  IPv6: 'No'
  Latitude: '6.441158'
  Longitude: '3.417977'
  Sites: 1
  Town: Lagos
  Type: Local
- Country: US
  IPv4: 'Yes'
  IPv6: 'Yes'
  Latitude: '36.1699'
  Longitude: '-115.1728'
  Sites: 1
  Town: Las Vegas
  Type: Local
- Country: PE
  IPv4: 'Yes'
  IPv6: 'Yes'
  Latitude: '-12.019421'
  Longitude: '-77.107666'
  Sites: 1
  Town: Lima
  Type: Local
- Country: PT
  IPv4: 'Yes'
  IPv6: 'Yes'
  Latitude: '38.7252993'
  Longitude: '-9.1500364'
  Sites: 1
  Town: Lisbon
  Type: Local
- Country: PT
  IPv4: 'Yes'
  IPv6: 'Yes'
  Latitude: '38.7812996'
  Longitude: '-9.1359196'
  Sites: 1
  Town: Lisbon
  Type: Local
- Country: UK
  IPv4: 'Yes'
  IPv6: 'Yes'
  Latitude: '51.5112139'
  Longitude: '-0.1198244'
  Sites: 2
  Town: London
  Type: Local
- Country: GB
  IPv4: 'Yes'
  IPv6: 'Yes'
  Latitude: '51.469604'
  Longitude: '-0.453566'
  Sites: 1
  Town: London
  Type: Local
- Country: US
  IPv4: 'Yes'
  IPv6: 'Yes'
  Latitude: '34.0522342'
  Longitude: '-118.2436849'
  Sites: 1
  State: CA
  Town: Los Angeles
  Type: Local
- Country: US
  IPv4: 'Yes'
  IPv6: 'Yes'
  Latitude: '33.943398'
  Longitude: '-118.40828'
  Sites: 1
  Town: Los Angeles
  Type: Local
- Country: Angola
  IPv4: 'Yes'
  IPv6: 'No'
  Latitude: '-8.814943'
  Longitude: '13.230847'
  Sites: 1
  Town: Luanda
  Type: Local
- Country: AO
  IPv4: 'Yes'
  IPv6: 'Yes'
  Latitude: '-8.838333'
  Longitude: '13.234443'
  Sites: 1
  Town: Luanda
  Type: Local
- Country: ES
  IPv4: 'Yes'
  IPv6: 'No'
  Latitude: '40.4167754'
  Longitude: '-3.7037902'
  Sites: 1
  Town: Madrid
  Type: Local
- Country: ES
  IPv4: 'Yes'
  IPv6: 'Yes'
  Latitude: '40.46515'
  Longitude: '-3.570209'
  Sites: 1
  Town: Madrid
  Type: Local
- Country: GB
  IPv4: 'Yes'
  IPv6: 'Yes'
  Latitude: '53.362907'
  Longitude: '-2.273354'
  Sites: 1
  Town: Manchester
  Type: Local
- Country: PH
  IPv4: 'Yes'
  IPv6: 'Yes'
  Latitude: '14.509602'
  Longitude: '121.01251'
  Sites: 2
  Town: Manila
  Type: Local
- Country: FR
  IPv4: 'Yes'
  IPv6: 'Yes'
  Latitude: '43.44178'
  Longitude: '5.222137'
  Sites: 1
  Town: Marseille
  Type: Local
- Country: CO
  IPv4: 'Yes'
  IPv6: 'Yes'
  Latitude: '6.171382'
  Longitude: '-75.42821'
  Sites: 1
  Town: Medellin
  Type: Local
- Country: AU
  IPv4: 'Yes'
  IPv6: 'Yes'
  Latitude: '-37.669613'
  Longitude: '144.84978'
  Sites: 1
  Town: Melbourne
  Type: Local
- Country: US
  IPv4: 'Yes'
  IPv6: 'Yes'
  Latitude: '25.796'
  Longitude: '-80.27824'
  Sites: 1
  Town: Miami
  Type: Local
- Country: IT
  IPv4: 'Yes'
  IPv6: 'Yes'
  Latitude: '45.627403'
  Longitude: '8.71237'
  Sites: 1
  Town: Milan
  Type: Local
- Country: US
  IPv4: 'Yes'
  IPv6: 'Yes'
  Latitude: '44.883015'
  Longitude: '-93.21092'
  Sites: 1
  Town: Minneapolis
  Type: Local
- Country: KE
  IPv4: 'Yes'
  IPv6: 'Yes'
  Latitude: '-4.0327'
  Longitude: '39.60325'
  Sites: 1
  Town: Mombasa
  Type: Local
- Country: MX
  IPv4: 'Yes'
  IPv6: 'No'
  Latitude: '25.6732109'
  Longitude: '-100.309201'
  Sites: 1
  Town: Monterrey
  Type: Local
- Country: UY
  IPv4: 'Yes'
  IPv6: 'Yes'
  Latitude: '-34.892319'
  Longitude: '-56.187732'
  Sites: 1
  Town: Montevideo
  Type: Local
- Country: CA
  IPv4: 'Yes'
  IPv6: 'Yes'
  Latitude: '45.457714'
  Longitude: '-73.74991'
  Sites: 1
  Town: Montreal
  Type: Local
- Country: RU
  IPv4: 'Yes'
  IPv6: 'Yes'
  Latitude: '55.755826'
  Longitude: '37.6173'
  Sites: 1
  Town: Moscow
  Type: Local
- Country: RU
  IPv4: 'Yes'
  IPv6: 'Yes'
  Latitude: '55.414566'
  Longitude: '37.899494'
  Sites: 1
  Town: Moscow
  Type: Local
- Country: IN
  IPv4: 'Yes'
  IPv6: 'Yes'
  Latitude: '19.095509'
  Longitude: '72.87497'
  Sites: 1
  Town: Mumbai
  Type: Local
- Country: OM
  IPv4: 'Yes'
  IPv6: 'Yes'
  Latitude: '23.588078'
  Longitude: '58.29022'
  Sites: 1
  Town: Muscat
  Type: Local
- Country: KE
  IPv4: 'Yes'
  IPv6: 'No'
  Latitude: '-1.2920659'
  Longitude: '36.8219462'
  Sites: 1
  Town: Nairobi
  Type: Local
- Country: US
  IPv4: 'Yes'
  IPv6: 'Yes'
  Latitude: '36.1263'
  Longitude: '-86.6774'
  Sites: 1
  Town: Nashville
  Type: Local
- Country: IN
  IPv4: 'Yes'
  IPv6: 'Yes'
  Latitude: '28.556555'
  Longitude: '77.10079'
  Sites: 1
  Town: New Delhi
  Type: Local
- Country: US
  IPv4: 'Yes'
  IPv6: 'Yes'
  Latitude: '40.7143528'
  Longitude: '-74.0059731'
  Sites: 1
  State: NY
  Town: New York
  Type: Global
- Country: US
  IPv4: 'Yes'
  IPv6: 'Yes'
  Latitude: '40.68907'
  Longitude: '-74.17876'
  Sites: 1
  Town: Newark
  Type: Local
- Country: US
  IPv4: 'Yes'
  IPv6: 'Yes'
  Latitude: '41.2523634'
  Longitude: '-95.99798829999999'
  Sites: 1
  Town: Omaha
  Type: Local
- Country: JP
  IPv4: 'Yes'
  IPv6: 'Yes'
  Latitude: '34.6937378'
  Longitude: '135.5021651'
  Sites: 1
  Town: Osaka
  Type: Local
- Country: JP
  IPv4: 'Yes'
  IPv6: 'Yes'
  Latitude: '34.43533'
  Longitude: '135.24397'
  Sites: 1
  Town: Osaka
  Type: Local
- Country: 'NO'
  IPv4: 'Yes'
  IPv6: 'Yes'
  Latitude: '59.9138688'
  Longitude: '10.7522454'
  Sites: 1
  Town: Oslo
  Type: Local
- Country: 'NO'
  IPv4: 'Yes'
  IPv6: 'Yes'
  Latitude: '60.19419'
  Longitude: '11.100411'
  Sites: 1
  Town: Oslo
  Type: Local
- Country: Canada
  IPv4: 'Yes'
  IPv6: 'No'
  Latitude: '45.4215296'
  Longitude: '-75.6971931'
  Sites: 1
  Town: Ottawa
  Type: Local
- Country: US
  IPv4: 'Yes'
  IPv6: 'Yes'
  Latitude: '37.4418834'
  Longitude: '-122.1430195'
  Sites: 1
  State: CA
  Town: Palo Alto
  Type: Global
- Country: PA
  IPv4: 'Yes'
  IPv6: 'Yes'
  Latitude: '9.0647'
  Longitude: '-79.3844'
  Sites: 1
  Town: Panama City
  Type: Local
- Country: FR
  IPv4: 'Yes'
  IPv6: 'Yes'
  Latitude: '48.856614'
  Longitude: '2.3522219'
  Sites: 1
  Town: Paris
  Type: Local
- Country: FR
  IPv4: 'Yes'
  IPv6: 'Yes'
  Latitude: '49.003197'
  Longitude: '2.567023'
  Sites: 1
  Town: Paris
  Type: Local
- Country: AU
  IPv4: 'Yes'
  IPv6: 'Yes'
  Latitude: '-31.933603'
  Longitude: '115.960236'
  Sites: 1
  Town: Perth
  Type: Local
- Country: US
  IPv4: 'Yes'
  IPv6: 'Yes'
  Latitude: '39.871898'
  Longitude: '-75.241096'
  Sites: 1
  Town: Philadelphia
  Type: Local
- Country: KH
  IPv4: 'Yes'
  IPv6: 'Yes'
  Latitude: '11.558831'
  Longitude: '104.917445'
  Sites: 1
  Town: Phnom Penh
  Type: Local
- Country: US
  IPv4: 'Yes'
  IPv6: 'Yes'
  Latitude: '33.435036'
  Longitude: '-112.00016'
  Sites: 1
  Town: Phoenix
  Type: Local
- Country: ME
  IPv4: 'Yes'
  IPv6: 'No'
  Latitude: '42.442575'
  Longitude: '19.268646'
  Sites: 1
  Town: Podgorica
  Type: Local
- Country: HT
  IPv4: 'Yes'
  IPv6: 'No'
  Latitude: '18.539269'
  Longitude: '-72.336408'
  Sites: 1
  Town: Port au Prince
  Type: Local
- Country: CZ
  IPv4: 'Yes'
  IPv6: 'Yes'
  Latitude: '50.0755381'
  Longitude: '14.4378005'
  Sites: 1
  Town: Prague
  Type: Local
- Country: CZ
  IPv4: 'Yes'
  IPv6: 'Yes'
  Latitude: '50.10619'
  Longitude: '14.266638'
  Sites: 1
  Town: Prague
  Type: Local
- Country: EC
  IPv4: 'Yes'
  IPv6: 'Yes'
  Latitude: '-0.2170967'
  Longitude: '-78.5169882'
  Sites: 1
  Town: Quito
  Type: Local
- Country: IT
  IPv4: 'Yes'
  IPv6: 'No'
  Latitude: '41.8929163'
  Longitude: '12.4825199'
  Sites: 1
  Town: Rome
  Type: Local
- Country: CR
  IPv4: 'Yes'
  IPv6: 'No'
  Latitude: '9.927128'
  Longitude: '-84.082012'
  Sites: 1
  Town: San Jose
  Type: Local
- Country: US
  IPv4: 'Yes'
  IPv6: 'Yes'
  Latitude: '37.3393857'
  Longitude: '-121.8949555'
  Sites: 1
  State: CA
  Town: San Jose
  Type: Local
- Country: US
  IPv4: 'Yes'
  IPv6: 'Yes'
  Latitude: '37.366737'
  Longitude: '-121.92638'
  Sites: 1
  Town: San Jose
  Type: Local
- Country: CL
  IPv4: 'Yes'
  IPv6: 'Yes'
  Latitude: '-33.4691199'
  Longitude: '-70.641997'
  Sites: 1
  Town: Santiago de Chile
  Type: Local
- Country: BR
  IPv4: 'Yes'
  IPv6: 'Yes'
  Latitude: '-23.5489433'
  Longitude: '-46.6388182'
  Sites: 1
  Town: Sao Paulo
  Type: Local
- Country: BR
  IPv4: 'Yes'
  IPv6: 'Yes'
  Latitude: '-23.425669'
  Longitude: '-46.481926'
  Sites: 1
  Town: Sao Paulo
  Type: Local
- Country: US
  IPv4: 'Yes'
  IPv6: 'Yes'
  Latitude: '47.44384'
  Longitude: '-122.301735'
  Sites: 1
  Town: Seattle
  Type: Local
- Country: KR
  IPv4: 'Yes'
  IPv6: 'Yes'
  Latitude: '37.566535'
  Longitude: '126.9779692'
  Sites: 1
  Town: Seoul
  Type: Local
- Country: KR
  IPv4: 'Yes'
  IPv6: 'Yes'
  Latitude: '37.448524'
  Longitude: '126.45123'
  Sites: 1
  Town: Seoul
  Type: Local
- Country: SG
  IPv4: 'Yes'
  IPv6: 'Yes'
  Latitude: '1.2800945'
  Longitude: '103.8509491'
  Sites: 1
  Town: Singapore
  Type: Local
- Country: SG
  IPv4: 'Yes'
  IPv6: 'Yes'
  Latitude: '1.361173'
  Longitude: '103.990204'
  Sites: 1
  Town: Singapore
  Type: Local
- Country: BG
  IPv4: 'Yes'
  IPv6: 'Yes'
  Latitude: '42.688343'
  Longitude: '23.41443'
  Sites: 1
  Town: Sofia
  Type: Local
- Country: US
  IPv4: 'Yes'
  IPv6: 'Yes'
  Latitude: '38.6270025'
  Longitude: '-90.19940419999999'
  Sites: 1
  Town: St. Louis
  Type: Local
- Country: AN
  IPv4: 'Yes'
  IPv6: 'Yes'
  Latitude: '18.016667'
  Longitude: '-63.05'
  Sites: 1
  Town: St. Maarten
  Type: Local
- Country: SE
  IPv4: 'Yes'
  IPv6: 'Yes'
  Latitude: '59.64982'
  Longitude: '17.930365'
  Sites: 1
  Town: Stockholm
  Type: Local
- Country: Fiji
  IPv4: 'Yes'
  IPv6: 'No'
  Latitude: '-18.1416'
  Longitude: '178.4419'
  Sites: 1
  Town: Suva
  Type: Local
- Country: AU
  IPv4: 'Yes'
  IPv6: 'Yes'
  Latitude: '-33.932922'
  Longitude: '151.1799'
  Sites: 1
  Town: Sydney
  Type: Local
- Country: TW
  IPv4: 'Yes'
  IPv6: 'No'
  Latitude: '25.091075'
  Longitude: '121.5598345'
  Sites: 1
  Town: Taipei
  Type: Local
- Country: TW
  IPv4: 'Yes'
  IPv6: 'Yes'
  Latitude: '25.07639'
  Longitude: '121.22389'
  Sites: 1
  Town: Taipei
  Type: Local
- Country: US
  IPv4: 'Yes'
  IPv6: 'Yes'
  Latitude: '27.975500'
  Longitude: '-82.533203'
  Sites: 1
  Town: Tampa
  Type: Local
- Country: IL
  IPv4: 'Yes'
  IPv6: 'No'
  Latitude: '32.066158'
  Longitude: '34.777819'
  Sites: 1
  Town: Tel Aviv
  Type: Local
- Country: JP
  IPv4: 'Yes'
  IPv6: 'Yes'
  Latitude: '35.773212'
  Longitude: '140.38744'
  Sites: 1
  Town: Tokyo
  Type: Local
- Country: IT
  IPv4: 'Yes'
  IPv6: 'Yes'
  Latitude: '45.070982'
  Longitude: '7.685676'
  Sites: 1
  Town: Torino
  Type: Local
- Country: CA
  IPv4: 'Yes'
  IPv6: 'Yes'
  Latitude: '43.653226'
  Longitude: '-79.3831843'
  Sites: 1
  Town: Toronto
  Type: Local
- Country: CA
  IPv4: 'Yes'
  IPv6: 'Yes'
  Latitude: '43.681583'
  Longitude: '-79.61146'
  Sites: 1
  Town: Toronto
  Type: Local
- Country: MN
  IPv4: 'Yes'
  IPv6: 'No'
  Latitude: '47.921378'
  Longitude: '106.90554'
  Sites: 1
  Town: Ulan Bator
  Type: Local
- Country: CL
  IPv4: 'Yes'
  IPv6: 'Yes'
  Latitude: '-33.397175'
  Longitude: '-70.79382'
  Sites: 1
  Town: Valparaiso
  Type: Local
- Country: CA
  IPv4: 'Yes'
  IPv6: 'Yes'
  Latitude: '49.1947'
  Longitude: '-123.17919'
  Sites: 1
  Town: Vancouver
  Type: Local
- Country: AT
  IPv4: 'Yes'
  IPv6: 'Yes'
  Latitude: '48.11972'
  Longitude: '16.563583'
  Sites: 1
  Town: Vienna
  Type: Local
- Country: PL
  IPv4: 'Yes'
  IPv6: 'Yes'
  Latitude: '52.2296756'
  Longitude: '21.0122287'
  Sites: 1
  Town: Warsaw
  Type: Local
- Country: PL
  IPv4: 'Yes'
  IPv6: 'Yes'
  Latitude: '52.170906'
  Longitude: '20.97329'
  Sites: 1
  Town: Warsaw
  Type: Local
- Country: CH
  IPv4: 'Yes'
  IPv6: 'Yes'
  Latitude: '47.450603'
  Longitude: '8.561746'
  Sites: 1
  Town: Zurich
  Type: Local
Operator: Internet Systems Consortium, Inc.
Peering Policy: http://www.isc.org/f-root/network-peering/
RSSAC: http://rssac-stats.isc.org/rssac002/
Statistics: ''
